{
"type": "FeatureCollection",
"name": "Stadiums",
"crs": { "type": "name", "properties": { "name": "urn:ogc:def:crs:OGC:1.3:CRS84" } },
"features": [
{ "type": "Feature", "properties": { "OBJECTID": 1, "GLOBAL_ID": "99F1123D-61D0-4825-B647-0A41201B7685", "NAME": "PNC Park", "LATITUDE": "40-26-49.38N", "LONGITUDE": "080-00-22.17W", "CITY": "Pittsburgh", "STATE": "PA", "STATUS_CODE": "Open", "OPENING_ON": null }, "geometry": { "type": "Point", "coordinates": [ -80.006161653723495, 40.447057970062801 ] } },
{ "type": "Feature", "properties": { "OBJECTID": 2, "GLOBAL_ID": "394CEFD3-4F13-47AC-BFFD-F591CDC73D1B", "NAME": "MetLife Stadium", "LATITUDE": "40-48-48.73N", "LONGITUDE": "074-04-27.81W", "CITY": "East Rutherford", "STATE": "NJ", "STATUS_CODE": "Open", "OPENING_ON": null }, "geometry": { "type": "Point", "coordinates": [ -74.074393143541997, 40.8135443847072 ] } },
{ "type": "Feature", "properties": { "OBJECTID": 3, "GLOBAL_ID": "A8A10A7F-F070-4601-BA8B-F2EA238206B5", "NAME": "Coors Field", "LATITUDE": "39-45-22.86N", "LONGITUDE": "104-59-38.90W", "CITY": "Denver", "STATE": "CO", "STATUS_CODE": "Open", "OPENING_ON": null }, "geometry": { "type": "Point", "coordinates": [ -104.994149000476, 39.756356421034603 ] } },
{ "type": "Feature", "properties": { "OBJECTID": 4, "GLOBAL_ID": "30829B54-B4CE-471F-B022-E06FDC34C686", "NAME": "Angel Stadium of Anaheim", "LATITUDE": "33-48-01.11N", "LONGITUDE": "117-52-57.75W", "CITY": "Anaheim", "STATE": "CA", "STATUS_CODE": "Open", "OPENING_ON": null }, "geometry": { "type": "Point", "coordinates": [ -117.882720439040995, 33.800313181113303 ] } },
{ "type": "Feature", "properties": { "OBJECTID": 5, "GLOBAL_ID": "80508D53-9617-4CD1-8A71-D4BD1543C985", "NAME": "Vaught-Hemingway Stadium", "LATITUDE": "34-21-43.12N", "LONGITUDE": "089-32-03.08W", "CITY": "Oxford", "STATE": "MS", "STATUS_CODE": "Open", "OPENING_ON": null }, "geometry": { "type": "Point", "coordinates": [ -89.534194582990594, 34.3619841355764 ] } },
{ "type": "Feature", "properties": { "OBJECTID": 6, "GLOBAL_ID": "41667551-01FD-40B0-9BA2-0FFAA1651571", "NAME": "Bristol Motor Speedway", "LATITUDE": "36-30-56.27N", "LONGITUDE": "082-15-25.47W", "CITY": "Bristol", "STATE": "TN", "STATUS_CODE": "Open", "OPENING_ON": null }, "geometry": { "type": "Point", "coordinates": [ -82.257078737105601, 36.5156376532656 ] } },
{ "type": "Feature", "properties": { "OBJECTID": 7, "GLOBAL_ID": "4466D317-FBC1-4694-9769-9A4B542467A7", "NAME": "Cajun Field", "LATITUDE": "30-12-57.09N", "LONGITUDE": "092-02-30.15W", "CITY": "Lafayette", "STATE": "LA", "STATUS_CODE": "Open", "OPENING_ON": null }, "geometry": { "type": "Point", "coordinates": [ -92.041714487015, 30.215863737967499 ] } },
{ "type": "Feature", "properties": { "OBJECTID": 8, "GLOBAL_ID": "B926C06D-494C-428F-A439-735A6BD1D693", "NAME": "Yulman Stadium", "LATITUDE": "29-56-40.60N", "LONGITUDE": "090-07-00.13W", "CITY": "New Orleans", "STATE": "LA", "STATUS_CODE": "Open", "OPENING_ON": null }, "geometry": { "type": "Point", "coordinates": [ -90.1167084023824, 29.944616521541001 ] } },
{ "type": "Feature", "properties": { "OBJECTID": 9, "GLOBAL_ID": "E2FA2A35-1C05-4082-BBCF-2AB9ACC42D1E", "NAME": "Lane Stadium", "LATITUDE": "37-13-11.84N", "LONGITUDE": "080-25-05.01W", "CITY": "Blacksburg", "STATE": "VA", "STATUS_CODE": "Open", "OPENING_ON": null }, "geometry": { "type": "Point", "coordinates": [ -80.418061562255701, 37.219962870599502 ] } },
{ "type": "Feature", "properties": { "OBJECTID": 10, "GLOBAL_ID": "FEF4B16C-F74A-45C9-B34E-92E6B51697D2", "NAME": "SECU Stadium", "LATITUDE": "38-59-24.61N", "LONGITUDE": "076-56-49.59W", "CITY": "College Park", "STATE": "MD", "STATUS_CODE": "Open", "OPENING_ON": null }, "geometry": { "type": "Point", "coordinates": [ -76.947110605570401, 38.990177251415702 ] } },
{ "type": "Feature", "properties": { "OBJECTID": 11, "GLOBAL_ID": "98963F56-E106-411F-918D-4FB0CB94456B", "NAME": "Sonoma Raceway", "LATITUDE": "38-09-45.46N", "LONGITUDE": "122-27-22.17W", "CITY": "Sonoma", "STATE": "CA", "STATUS_CODE": "Open", "OPENING_ON": null }, "geometry": { "type": "Point", "coordinates": [ -122.456171599355997, 38.1626327511593 ] } },
{ "type": "Feature", "properties": { "OBJECTID": 12, "GLOBAL_ID": "D0C392E7-8C41-4505-A38F-1255412F2D7C", "NAME": "Bulldog Stadium", "LATITUDE": "36-48-51.92N", "LONGITUDE": "119-45-29.09W", "CITY": "Fresno", "STATE": "CA", "STATUS_CODE": "Open", "OPENING_ON": null }, "geometry": { "type": "Point", "coordinates": [ -119.758093250472996, 36.814427268489602 ] } },
{ "type": "Feature", "properties": { "OBJECTID": 13, "GLOBAL_ID": "459ABC61-8208-46BD-9744-483C1D2A9ADF", "NAME": "JMA Wireless Dome", "LATITUDE": "43-02-10.44N", "LONGITUDE": "076-08-10.65W", "CITY": "Syracuse", "STATE": "NY", "STATUS_CODE": "Open", "OPENING_ON": null }, "geometry": { "type": "Point", "coordinates": [ -76.136293957891994, 43.036241948590998 ] } },
{ "type": "Feature", "properties": { "OBJECTID": 14, "GLOBAL_ID": "AD568B27-C4BE-4289-81D3-2B24B73DEC80", "NAME": "New Hampshire Motor Speedway", "LATITUDE": "43-21-46.07N", "LONGITUDE": "071-27-38.37W", "CITY": "Loudon", "STATE": "NH", "STATUS_CODE": "Open", "OPENING_ON": null }, "geometry": { "type": "Point", "coordinates": [ -71.460659116525804, 43.362806070168503 ] } },
{ "type": "Feature", "properties": { "OBJECTID": 15, "GLOBAL_ID": "981EE6A4-101B-40C8-B367-5103B01EE59E", "NAME": "Michigan Stadium", "LATITUDE": "42-15-57.14N", "LONGITUDE": "083-44-55.48W", "CITY": "Ann Arbor", "STATE": "MI", "STATUS_CODE": "Open", "OPENING_ON": null }, "geometry": { "type": "Point", "coordinates": [ -83.748749066111301, 42.2658803499721 ] } },
{ "type": "Feature", "properties": { "OBJECTID": 16, "GLOBAL_ID": "89B468F5-58B3-4CDB-8AA4-FAEDC3DD8345", "NAME": "BB&T Field", "LATITUDE": "36-07-50.01N", "LONGITUDE": "080-15-16.38W", "CITY": "Winston-Salem", "STATE": "NC", "STATUS_CODE": "Open", "OPENING_ON": null }, "geometry": { "type": "Point", "coordinates": [ -80.254553115822304, 36.130565427555297 ] } },
{ "type": "Feature", "properties": { "OBJECTID": 17, "GLOBAL_ID": "E0089F35-AE24-420A-902A-3ABB6E9C0E66", "NAME": "Apogee Stadium", "LATITUDE": "33-12-14.14N", "LONGITUDE": "097-09-33.19W", "CITY": "Denton", "STATE": "TX", "STATUS_CODE": "Open", "OPENING_ON": null }, "geometry": { "type": "Point", "coordinates": [ -97.159227086158694, 33.203933579056198 ] } },
{ "type": "Feature", "properties": { "OBJECTID": 18, "GLOBAL_ID": "039D5552-DD9D-463B-905A-31BF19A1FD0C", "NAME": "Waldo Stadium", "LATITUDE": "42-17-08.70N", "LONGITUDE": "085-36-03.67W", "CITY": "Kalamazoo", "STATE": "MI", "STATUS_CODE": "Open", "OPENING_ON": null }, "geometry": { "type": "Point", "coordinates": [ -85.601024629728101, 42.285758034639301 ] } },
{ "type": "Feature", "properties": { "OBJECTID": 19, "GLOBAL_ID": "BFE9A98C-61C0-44EB-BCF7-73BC38A02222", "NAME": "Homestead-Miami Speedway", "LATITUDE": "25-27-07.77N", "LONGITUDE": "080-24-30.81W", "CITY": "Homestead", "STATE": "FL", "STATUS_CODE": "Open", "OPENING_ON": null }, "geometry": { "type": "Point", "coordinates": [ -80.408561068233098, 25.452162933046001 ] } },
{ "type": "Feature", "properties": { "OBJECTID": 20, "GLOBAL_ID": "1418EA7A-C0A2-4796-9B1D-C7010ED93A5E", "NAME": "Raymond James Stadium", "LATITUDE": "27-58-33.34N", "LONGITUDE": "082-30-11.88W", "CITY": "Tampa", "STATE": "FL", "STATUS_CODE": "Open", "OPENING_ON": null }, "geometry": { "type": "Point", "coordinates": [ -82.503303415629603, 27.9759329556741 ] } },
{ "type": "Feature", "properties": { "OBJECTID": 21, "GLOBAL_ID": "F7564EFF-35BA-4072-89C3-E9AF3DC4734E", "NAME": "Camp Randall Stadium", "LATITUDE": "43-04-11.74N", "LONGITUDE": "089-24-45.61W", "CITY": "Madison", "STATE": "WI", "STATUS_CODE": "Open", "OPENING_ON": null }, "geometry": { "type": "Point", "coordinates": [ -89.412675843227007, 43.069935727308 ] } },
{ "type": "Feature", "properties": { "OBJECTID": 22, "GLOBAL_ID": "05AE4D1F-6A26-4789-98AE-BE048399B624", "NAME": "Citizens Bank Park", "LATITUDE": "39-54-22.24N", "LONGITUDE": "075-09-59.29W", "CITY": "Philadelphia", "STATE": "PA", "STATUS_CODE": "Open", "OPENING_ON": null }, "geometry": { "type": "Point", "coordinates": [ -75.166471213054507, 39.906185833946402 ] } },
{ "type": "Feature", "properties": { "OBJECTID": 23, "GLOBAL_ID": "A15E3F30-E82F-4704-A796-8A5CF9673082", "NAME": "Veterans Memorial Stadium", "LATITUDE": "31-47-58.50N", "LONGITUDE": "085-57-06.61W", "CITY": "Troy", "STATE": "AL", "STATUS_CODE": "Open", "OPENING_ON": null }, "geometry": { "type": "Point", "coordinates": [ -85.951840663322898, 31.799589288856001 ] } },
{ "type": "Feature", "properties": { "OBJECTID": 24, "GLOBAL_ID": "F8A2BABF-C24F-4704-BFB3-572DF5216E14", "NAME": "Empower Field at Mile High", "LATITUDE": "39-44-38.08N", "LONGITUDE": "105-01-12.53W", "CITY": "Denver", "STATE": "CO", "STATUS_CODE": "Open", "OPENING_ON": null }, "geometry": { "type": "Point", "coordinates": [ -105.020157338036, 39.743917528518303 ] } },
{ "type": "Feature", "properties": { "OBJECTID": 25, "GLOBAL_ID": "50B8461F-A859-493C-924D-A0018FF2EB12", "NAME": "Alumni Stadium", "LATITUDE": "42-20-06.42N", "LONGITUDE": "071-09-59.18W", "CITY": "Chestnut Hill", "STATE": "MA", "STATUS_CODE": "Open", "OPENING_ON": null }, "geometry": { "type": "Point", "coordinates": [ -71.166439513590703, 42.335125332200498 ] } },
{ "type": "Feature", "properties": { "OBJECTID": 26, "GLOBAL_ID": "D5383551-A180-43AC-AE7E-85C06C5FC729", "NAME": "Lucas Oil Stadium", "LATITUDE": "39-45-36.21N", "LONGITUDE": "086-09-48.73W", "CITY": "Indianapolis", "STATE": "IN", "STATUS_CODE": "Open", "OPENING_ON": null }, "geometry": { "type": "Point", "coordinates": [ -86.163541235884395, 39.760065887486697 ] } },
{ "type": "Feature", "properties": { "OBJECTID": 27, "GLOBAL_ID": "ACD0B252-EB3D-4113-9452-8F38930894A3", "NAME": "Wrigley Field", "LATITUDE": "41-56-53.01N", "LONGITUDE": "087-39-20.33W", "CITY": "Chicago", "STATE": "IL", "STATUS_CODE": "Open", "OPENING_ON": null }, "geometry": { "type": "Point", "coordinates": [ -87.655652986411098, 41.948066197158099 ] } },
{ "type": "Feature", "properties": { "OBJECTID": 28, "GLOBAL_ID": "5B9CAA1D-8568-47FB-BA69-CD266FB3EA22", "NAME": "Kinnick Stadium", "LATITUDE": "41-39-31.14N", "LONGITUDE": "091-33-03.99W", "CITY": "Iowa City", "STATE": "IA", "STATUS_CODE": "Open", "OPENING_ON": null }, "geometry": { "type": "Point", "coordinates": [ -91.551115192471798, 41.658657589535302 ] } },
{ "type": "Feature", "properties": { "OBJECTID": 29, "GLOBAL_ID": "C7AB2D68-7D50-4FE0-A5E6-E54A9CD83E51", "NAME": "Bryant-Denny Stadium", "LATITUDE": "33-12-27.50N", "LONGITUDE": "087-33-01.65W", "CITY": "Tuscaloosa", "STATE": "AL", "STATUS_CODE": "Open", "OPENING_ON": null }, "geometry": { "type": "Point", "coordinates": [ -87.550463407443601, 33.207645089119602 ] } },
{ "type": "Feature", "properties": { "OBJECTID": 30, "GLOBAL_ID": "67812E40-9635-4DDF-8B44-7DA57B5AB622", "NAME": "InfoCision Stadium/Summa Field", "LATITUDE": "41-04-21.36N", "LONGITUDE": "081-30-30.20W", "CITY": "Akron", "STATE": "OH", "STATUS_CODE": "Open", "OPENING_ON": null }, "geometry": { "type": "Point", "coordinates": [ -81.508392721331901, 41.072608020715897 ] } },
{ "type": "Feature", "properties": { "OBJECTID": 31, "GLOBAL_ID": "6110219F-5FBB-49B0-96AE-8BCC31E526C0", "NAME": "TDECU Stadium", "LATITUDE": "29-43-19.20N", "LONGITUDE": "095-20-57.12W", "CITY": "Houston", "STATE": "TX", "STATUS_CODE": "Open", "OPENING_ON": null }, "geometry": { "type": "Point", "coordinates": [ -95.349206996320405, 29.722005189928598 ] } },
{ "type": "Feature", "properties": { "OBJECTID": 32, "GLOBAL_ID": "959870FA-BF2F-4AB6-B729-47F1AABFEC30", "NAME": "Ross-Ade Stadium", "LATITUDE": "40-26-03.94N", "LONGITUDE": "086-55-06.31W", "CITY": "West Lafayette", "STATE": "IN", "STATUS_CODE": "Open", "OPENING_ON": null }, "geometry": { "type": "Point", "coordinates": [ -86.918424848706493, 40.434435416594702 ] } },
{ "type": "Feature", "properties": { "OBJECTID": 33, "GLOBAL_ID": "E98AA425-2DDB-4BCA-AF0B-700F9272757E", "NAME": "AT&T Stadium", "LATITUDE": "32-44-52.07N", "LONGITUDE": "097-05-34.90W", "CITY": "Arlington", "STATE": "TX", "STATUS_CODE": "Open", "OPENING_ON": null }, "geometry": { "type": "Point", "coordinates": [ -97.093035375371997, 32.747802940414203 ] } },
{ "type": "Feature", "properties": { "OBJECTID": 34, "GLOBAL_ID": "E1A09C1B-7E65-4776-9938-0C9F60A45F27", "NAME": "Aggie Memorial Stadium", "LATITUDE": "32-16-46.63N", "LONGITUDE": "106-44-27.92W", "CITY": "Las Cruces", "STATE": "NM", "STATUS_CODE": "Open", "OPENING_ON": null }, "geometry": { "type": "Point", "coordinates": [ -106.741098726792004, 32.279624649532202 ] } },
{ "type": "Feature", "properties": { "OBJECTID": 35, "GLOBAL_ID": "2EAB91A1-76F3-48C9-AE8D-E4FD0956BF40", "NAME": "Sam Boyd Stadium", "LATITUDE": "36-05-10.50N", "LONGITUDE": "115-01-00.12W", "CITY": "Las Vegas", "STATE": "NV", "STATUS_CODE": "Open", "OPENING_ON": null }, "geometry": { "type": "Point", "coordinates": [ -115.016711800709999, 36.086255280896701 ] } },
{ "type": "Feature", "properties": { "OBJECTID": 36, "GLOBAL_ID": "B98F0491-FF91-425D-8AEA-E49A4CD84D07", "NAME": "FedEx Field", "LATITUDE": "38-54-27.60N", "LONGITUDE": "076-51-52.06W", "CITY": "Landover", "STATE": "MD", "STATUS_CODE": "Open", "OPENING_ON": null }, "geometry": { "type": "Point", "coordinates": [ -76.864463352777307, 38.907674460861401 ] } },
{ "type": "Feature", "properties": { "OBJECTID": 37, "GLOBAL_ID": "A3F8ADB4-B176-4C0B-B00D-7CFC01E95546", "NAME": "Spartan Stadium (Michigan)", "LATITUDE": "42-43-41.41N", "LONGITUDE": "084-29-05.53W", "CITY": "East Lansing", "STATE": "MI", "STATUS_CODE": "Open", "OPENING_ON": null }, "geometry": { "type": "Point", "coordinates": [ -84.484874334551606, 42.728177614517897 ] } },
{ "type": "Feature", "properties": { "OBJECTID": 38, "GLOBAL_ID": "942C1597-475F-4F69-9F39-0B402356EB3C", "NAME": "Branch Field at University Stadium", "LATITUDE": "35-04-01.05N", "LONGITUDE": "106-37-41.77W", "CITY": "Albuquerque", "STATE": "NM", "STATUS_CODE": "Open", "OPENING_ON": null }, "geometry": { "type": "Point", "coordinates": [ -106.628279459897996, 35.066963976279197 ] } },
{ "type": "Feature", "properties": { "OBJECTID": 39, "GLOBAL_ID": "8A8F5ED5-0047-46A1-A436-23C51AC387E5", "NAME": "Sun Bowl Stadium", "LATITUDE": "31-46-24.02N", "LONGITUDE": "106-30-28.40W", "CITY": "El Paso", "STATE": "TX", "STATUS_CODE": "Open", "OPENING_ON": null }, "geometry": { "type": "Point", "coordinates": [ -106.507898644682001, 31.773344023497501 ] } },
{ "type": "Feature", "properties": { "OBJECTID": 40, "GLOBAL_ID": "9B338B88-6867-4F96-BD90-27843C7362C8", "NAME": "Albertsons Stadium", "LATITUDE": "43-36-10.18N", "LONGITUDE": "116-11-45.09W", "CITY": "Boise", "STATE": "ID", "STATUS_CODE": "Open", "OPENING_ON": null }, "geometry": { "type": "Point", "coordinates": [ -116.195871342187004, 43.602833732544603 ] } },
{ "type": "Feature", "properties": { "OBJECTID": 41, "GLOBAL_ID": "5CA833FA-B9E5-46AA-A3D8-9086D1D0F48F", "NAME": "Martinsville Speedway", "LATITUDE": "36-38-02.98N", "LONGITUDE": "079-51-06.30W", "CITY": "Ridgeway", "STATE": "VA", "STATUS_CODE": "Open", "OPENING_ON": null }, "geometry": { "type": "Point", "coordinates": [ -79.851753023303601, 36.634168326146799 ] } },
{ "type": "Feature", "properties": { "OBJECTID": 42, "GLOBAL_ID": "2441C7C2-A57E-49B0-91B2-B29411265C08", "NAME": "Target Field", "LATITUDE": "44-58-54.30N", "LONGITUDE": "093-16-39.97W", "CITY": "Minneapolis", "STATE": "MN", "STATUS_CODE": "Open", "OPENING_ON": null }, "geometry": { "type": "Point", "coordinates": [ -93.277777199252498, 44.981757993059198 ] } },
{ "type": "Feature", "properties": { "OBJECTID": 43, "GLOBAL_ID": "9DFF855E-0A82-4FBE-A938-54C6C379729F", "NAME": "Mountaineer Field at Milan Puskar Stadium", "LATITUDE": "39-39-00.75N", "LONGITUDE": "079-57-18.28W", "CITY": "Morgantown", "STATE": "WV", "STATUS_CODE": "Open", "OPENING_ON": null }, "geometry": { "type": "Point", "coordinates": [ -79.955081025579005, 39.650216151885303 ] } },
{ "type": "Feature", "properties": { "OBJECTID": 44, "GLOBAL_ID": "64370F67-5C79-4457-B622-79806E0F21E7", "NAME": "Hard Rock Stadium", "LATITUDE": "25-57-28.57N", "LONGITUDE": "080-14-19.87W", "CITY": "Miami Gardens", "STATE": "FL", "STATUS_CODE": "Open", "OPENING_ON": null }, "geometry": { "type": "Point", "coordinates": [ -80.238855476717802, 25.957940843040799 ] } },
{ "type": "Feature", "properties": { "OBJECTID": 45, "GLOBAL_ID": "8838D2A7-493E-4E5F-A3A8-8601B116F65B", "NAME": "RingCentral Coliseum", "LATITUDE": "37-45-05.79N", "LONGITUDE": "122-12-02.23W", "CITY": "Oakland", "STATE": "CA", "STATUS_CODE": "Open", "OPENING_ON": null }, "geometry": { "type": "Point", "coordinates": [ -122.200632623687994, 37.751613291231699 ] } },
{ "type": "Feature", "properties": { "OBJECTID": 46, "GLOBAL_ID": "CADFC1BB-667C-4157-BADB-21BA43488F97", "NAME": "Oriole Park at Camden Yards", "LATITUDE": "39-17-02.22N", "LONGITUDE": "076-37-17.61W", "CITY": "Baltimore", "STATE": "MD", "STATUS_CODE": "Open", "OPENING_ON": null }, "geometry": { "type": "Point", "coordinates": [ -76.621560521952702, 39.283957878533002 ] } },
{ "type": "Feature", "properties": { "OBJECTID": 47, "GLOBAL_ID": "153ACF16-2333-41AD-94BA-E45398076B25", "NAME": "NRG Stadium", "LATITUDE": "29-41-05.74N", "LONGITUDE": "095-24-39.31W", "CITY": "Houston", "STATE": "TX", "STATUS_CODE": "Open", "OPENING_ON": null }, "geometry": { "type": "Point", "coordinates": [ -95.410926454484894, 29.684932958245199 ] } },
{ "type": "Feature", "properties": { "OBJECTID": 48, "GLOBAL_ID": "83C31208-8589-47A9-A398-722FB798BCCA", "NAME": "Fenway Park", "LATITUDE": "42-20-46.39N", "LONGITUDE": "071-05-51.75W", "CITY": "Boston", "STATE": "MA", "STATUS_CODE": "Open", "OPENING_ON": null }, "geometry": { "type": "Point", "coordinates": [ -71.097708935675897, 42.346228113511401 ] } },
{ "type": "Feature", "properties": { "OBJECTID": 49, "GLOBAL_ID": "3F7AAC2B-F601-4820-B155-3055B219665C", "NAME": "Lambeau Field", "LATITUDE": "44-30-04.60N", "LONGITUDE": "088-03-43.98W", "CITY": "Green Bay", "STATE": "WI", "STATUS_CODE": "Open", "OPENING_ON": null }, "geometry": { "type": "Point", "coordinates": [ -88.062222831535493, 44.501286038787804 ] } },
{ "type": "Feature", "properties": { "OBJECTID": 50, "GLOBAL_ID": "23922AA1-8E2A-4EA8-99E5-FF85DAD47790", "NAME": "Chicagoland Speedway", "LATITUDE": "41-28-27.40N", "LONGITUDE": "088-03-33.31W", "CITY": "Joliet", "STATE": "IL", "STATUS_CODE": "Open", "OPENING_ON": null }, "geometry": { "type": "Point", "coordinates": [ -88.059258613995297, 41.474285538337803 ] } },
{ "type": "Feature", "properties": { "OBJECTID": 51, "GLOBAL_ID": "323B16CD-2059-431D-911E-4D9B8073A0CE", "NAME": "Martin Stadium", "LATITUDE": "46-43-54.55N", "LONGITUDE": "117-09-37.65W", "CITY": "Pullman", "STATE": "WA", "STATUS_CODE": "Open", "OPENING_ON": null }, "geometry": { "type": "Point", "coordinates": [ -117.160472129015005, 46.731825554722903 ] } },
{ "type": "Feature", "properties": { "OBJECTID": 52, "GLOBAL_ID": "9F1A0456-C733-4B52-A9FF-CA5AA095D7F6", "NAME": "Autzen Stadium", "LATITUDE": "44-03-29.76N", "LONGITUDE": "123-04-06.61W", "CITY": "Eugene", "STATE": "OR", "STATUS_CODE": "Open", "OPENING_ON": null }, "geometry": { "type": "Point", "coordinates": [ -123.068517031373005, 44.058272005869298 ] } },
{ "type": "Feature", "properties": { "OBJECTID": 53, "GLOBAL_ID": "67516F22-D531-439E-8399-8D93F0E304AD", "NAME": "M&T Bank Stadium", "LATITUDE": "39-16-40.44N", "LONGITUDE": "076-37-21.72W", "CITY": "Baltimore", "STATE": "MD", "STATUS_CODE": "Open", "OPENING_ON": null }, "geometry": { "type": "Point", "coordinates": [ -76.622702188937197, 39.2779078772787 ] } },
{ "type": "Feature", "properties": { "OBJECTID": 54, "GLOBAL_ID": "6BB176CA-EE62-4F68-9D6E-D6D7AFC7B3AF", "NAME": "War Memorial Stadium (Wyoming)", "LATITUDE": "41-18-42.12N", "LONGITUDE": "105-34-05.77W", "CITY": "Laramie", "STATE": "WY", "STATUS_CODE": "Open", "OPENING_ON": null }, "geometry": { "type": "Point", "coordinates": [ -105.568279880624004, 41.311706587645403 ] } },
{ "type": "Feature", "properties": { "OBJECTID": 55, "GLOBAL_ID": "5CA52C19-3541-4ABC-905E-7D0D500FA21F", "NAME": "Bill Snyder Family Stadium", "LATITUDE": "39-12-07.20N", "LONGITUDE": "096-35-37.82W", "CITY": "Manhattan", "STATE": "KS", "STATUS_CODE": "Open", "OPENING_ON": null }, "geometry": { "type": "Point", "coordinates": [ -96.593846867229601, 39.2020068816609 ] } },
{ "type": "Feature", "properties": { "OBJECTID": 56, "GLOBAL_ID": "7D30C29A-6DED-4F36-8038-321CF182FEE1", "NAME": "Darlington Raceway", "LATITUDE": "34-17-43.26N", "LONGITUDE": "079-54-21.70W", "CITY": "Darlington", "STATE": "SC", "STATUS_CODE": "Open", "OPENING_ON": null }, "geometry": { "type": "Point", "coordinates": [ -79.906030691723302, 34.295356712998398 ] } },
{ "type": "Feature", "properties": { "OBJECTID": 57, "GLOBAL_ID": "6BA2B463-29A6-4986-BCA6-BE2127BDEDE2", "NAME": "Neyland Stadium", "LATITUDE": "35-57-17.92N", "LONGITUDE": "083-55-29.92W", "CITY": "Knoxville", "STATE": "TN", "STATUS_CODE": "Open", "OPENING_ON": null }, "geometry": { "type": "Point", "coordinates": [ -83.9249819725583, 35.954984692883798 ] } },
{ "type": "Feature", "properties": { "OBJECTID": 58, "GLOBAL_ID": "0F2A926B-0A27-4381-A60D-C03DAAD768C7", "NAME": "US Bank Stadium", "LATITUDE": "44-58-24.72N", "LONGITUDE": "093-15-26.66W", "CITY": "Minneapolis", "STATE": "MN", "STATUS_CODE": "Open", "OPENING_ON": null }, "geometry": { "type": "Point", "coordinates": [ -93.257413304302702, 44.973541326279097 ] } },
{ "type": "Feature", "properties": { "OBJECTID": 59, "GLOBAL_ID": "933628C4-9045-4CE5-9A83-667428F597CB", "NAME": "Charlotte Motor Speedway", "LATITUDE": "35-21-05.07N", "LONGITUDE": "080-40-55.95W", "CITY": "Concord", "STATE": "NC", "STATUS_CODE": "Open", "OPENING_ON": null }, "geometry": { "type": "Point", "coordinates": [ -80.682211533613, 35.351415246742299 ] } },
{ "type": "Feature", "properties": { "OBJECTID": 60, "GLOBAL_ID": "C83DB815-C04D-4E36-BE01-38FE03FF06E7", "NAME": "Darrell K. Royal-Texas Memorial Stadium", "LATITUDE": "30-17-01.16N", "LONGITUDE": "097-43-57.12W", "CITY": "Austin", "STATE": "TX", "STATUS_CODE": "Open", "OPENING_ON": null }, "geometry": { "type": "Point", "coordinates": [ -97.732540957207206, 30.2836607751195 ] } },
{ "type": "Feature", "properties": { "OBJECTID": 61, "GLOBAL_ID": "1336CB93-E618-4BCE-B22A-73AB285A3F4B", "NAME": "PETCO Park", "LATITUDE": "32-42-27.25N", "LONGITUDE": "117-09-25.34W", "CITY": "San Diego", "STATE": "CA", "STATUS_CODE": "Open", "OPENING_ON": null }, "geometry": { "type": "Point", "coordinates": [ -117.157050788769993, 32.707574204092502 ] } },
{ "type": "Feature", "properties": { "OBJECTID": 62, "GLOBAL_ID": "C635F526-A097-4080-AF1E-D4D0FA8793B5", "NAME": "Rice-Eccles Stadium", "LATITUDE": "40-45-35.85N", "LONGITUDE": "111-50-55.71W", "CITY": "Salt Lake City", "STATE": "UT", "STATUS_CODE": "Open", "OPENING_ON": null }, "geometry": { "type": "Point", "coordinates": [ -111.848820060056994, 40.759964373405403 ] } },
{ "type": "Feature", "properties": { "OBJECTID": 63, "GLOBAL_ID": "1AC181C2-4DCD-420A-90A1-485030EDD52B", "NAME": "Johnny \"Red\" Floyd Stadium", "LATITUDE": "35-51-04.10N", "LONGITUDE": "086-22-05.30W", "CITY": "Murfreesboro", "STATE": "TN", "STATUS_CODE": "Open", "OPENING_ON": null }, "geometry": { "type": "Point", "coordinates": [ -86.368143784882193, 35.851145680934998 ] } },
{ "type": "Feature", "properties": { "OBJECTID": 64, "GLOBAL_ID": "E29B9D3F-BCF4-485E-8DBD-2DA8C92E16C1", "NAME": "Memorial Stadium (South Carolina)", "LATITUDE": "34-40-43.42N", "LONGITUDE": "082-50-35.44W", "CITY": "Clemson", "STATE": "SC", "STATUS_CODE": "Open", "OPENING_ON": null }, "geometry": { "type": "Point", "coordinates": [ -82.843181581432802, 34.678734468380803 ] } },
{ "type": "Feature", "properties": { "OBJECTID": 65, "GLOBAL_ID": "3388A2F7-55EC-461D-96E2-6E18D3E93DDC", "NAME": "Ben Hill Griffin Stadium", "LATITUDE": "29-38-59.67N", "LONGITUDE": "082-20-54.98W", "CITY": "Gainesville", "STATE": "FL", "STATUS_CODE": "Open", "OPENING_ON": null }, "geometry": { "type": "Point", "coordinates": [ -82.348608985270999, 29.649913913475 ] } },
{ "type": "Feature", "properties": { "OBJECTID": 66, "GLOBAL_ID": "9B5A5C35-0610-4025-8A8A-8346D98C2E01", "NAME": "Aloha Stadium", "LATITUDE": "21-22-22.15N", "LONGITUDE": "157-55-47.89W", "CITY": "Honolulu", "STATE": "HI", "STATUS_CODE": "Open", "OPENING_ON": null }, "geometry": { "type": "Point", "coordinates": [ -157.929983842908996, 21.372822864365201 ] } },
{ "type": "Feature", "properties": { "OBJECTID": 67, "GLOBAL_ID": "2A0E6E94-C576-4A8F-923C-7BBE17BFF1DB", "NAME": "Michigan International Speedway", "LATITUDE": "42-03-52.80N", "LONGITUDE": "084-14-27.01W", "CITY": "Brooklyn", "STATE": "MI", "STATUS_CODE": "Open", "OPENING_ON": null }, "geometry": { "type": "Point", "coordinates": [ -84.240840864444607, 42.064674734327497 ] } },
{ "type": "Feature", "properties": { "OBJECTID": 68, "GLOBAL_ID": "4045B1B5-DECD-4F3A-89B6-2FE9362A3F59", "NAME": "McLane Stadium", "LATITUDE": "31-33-29.44N", "LONGITUDE": "097-06-56.43W", "CITY": "Waco", "STATE": "TX", "STATUS_CODE": "Open", "OPENING_ON": null }, "geometry": { "type": "Point", "coordinates": [ -97.115682535037706, 31.558183268522701 ] } },
{ "type": "Feature", "properties": { "OBJECTID": 69, "GLOBAL_ID": "C1C05227-02BB-41EA-B02D-41F7898C138D", "NAME": "Michie Stadium", "LATITUDE": "41-23-15.14N", "LONGITUDE": "073-57-50.86W", "CITY": "West Point", "STATE": "NY", "STATUS_CODE": "Open", "OPENING_ON": null }, "geometry": { "type": "Point", "coordinates": [ -73.964129254697895, 41.387547277993498 ] } },
{ "type": "Feature", "properties": { "OBJECTID": 70, "GLOBAL_ID": "E40D87C9-1890-4278-8501-3B8D9F3C5948", "NAME": "Gerald J. Ford Stadium", "LATITUDE": "32-50-15.86N", "LONGITUDE": "096-46-57.97W", "CITY": "Dallas", "STATE": "TX", "STATUS_CODE": "Open", "OPENING_ON": null }, "geometry": { "type": "Point", "coordinates": [ -96.7827769683188, 32.837744637766498 ] } },
{ "type": "Feature", "properties": { "OBJECTID": 71, "GLOBAL_ID": "FE789F06-888C-4BB3-8DAE-2E68831A340A", "NAME": "Talladega Superspeedway", "LATITUDE": "33-34-09.33N", "LONGITUDE": "086-03-59.22W", "CITY": "Talladega", "STATE": "AL", "STATUS_CODE": "Open", "OPENING_ON": null }, "geometry": { "type": "Point", "coordinates": [ -86.066454674526199, 33.569264666044297 ] } },
{ "type": "Feature", "properties": { "OBJECTID": 72, "GLOBAL_ID": "937B1E1E-CCA6-49E8-993F-37AA08C336F2", "NAME": "Sanford Stadium", "LATITUDE": "33-56-59.29N", "LONGITUDE": "083-22-24.19W", "CITY": "Athens", "STATE": "GA", "STATUS_CODE": "Open", "OPENING_ON": null }, "geometry": { "type": "Point", "coordinates": [ -83.373390030169503, 33.9498092928254 ] } },
{ "type": "Feature", "properties": { "OBJECTID": 73, "GLOBAL_ID": "65F0F689-EF04-4D22-BDC9-F425AD5ABC9D", "NAME": "American Family Field", "LATITUDE": "43-01-41.23N", "LONGITUDE": "087-58-16.24W", "CITY": "Milwaukee", "STATE": "WI", "STATUS_CODE": "Open", "OPENING_ON": null }, "geometry": { "type": "Point", "coordinates": [ -87.971183748066096, 43.028127471861502 ] } },
{ "type": "Feature", "properties": { "OBJECTID": 74, "GLOBAL_ID": "F7859AFE-C202-453C-A099-52A547EAD4B4", "NAME": "Highmark Stadium", "LATITUDE": "42-46-25.51N", "LONGITUDE": "078-47-13.04W", "CITY": "Orchard Park", "STATE": "NY", "STATUS_CODE": "Open", "OPENING_ON": null }, "geometry": { "type": "Point", "coordinates": [ -78.786958675619402, 42.7737612334058 ] } },
{ "type": "Feature", "properties": { "OBJECTID": 75, "GLOBAL_ID": "6FF2C133-48B4-4465-8505-CDCD42BD5C4A", "NAME": "Folsom Field", "LATITUDE": "40-00-34.09N", "LONGITUDE": "105-16-00.84W", "CITY": "Boulder", "STATE": "CO", "STATUS_CODE": "Open", "OPENING_ON": null }, "geometry": { "type": "Point", "coordinates": [ -105.266910204208997, 40.009475880577597 ] } },
{ "type": "Feature", "properties": { "OBJECTID": 76, "GLOBAL_ID": "D3A0EF6E-7337-4145-9E50-8E0EEDBE3D48", "NAME": "Acrisure Stadium", "LATITUDE": "40-26-48.22N", "LONGITUDE": "080-00-56.66W", "CITY": "Pittsburgh", "STATE": "PA", "STATUS_CODE": "Open", "OPENING_ON": null }, "geometry": { "type": "Point", "coordinates": [ -80.015742212662701, 40.446735747588299 ] } },
{ "type": "Feature", "properties": { "OBJECTID": 77, "GLOBAL_ID": "DF6DE397-6C25-4DDF-9977-8E580F180FF5", "NAME": "Bobby Bowden Field at Doak Campbell Stadium", "LATITUDE": "30-26-17.41N", "LONGITUDE": "084-18-15.80W", "CITY": "Tallahassee", "STATE": "FL", "STATUS_CODE": "Open", "OPENING_ON": null }, "geometry": { "type": "Point", "coordinates": [ -84.304392912276896, 30.4381751489931 ] } },
{ "type": "Feature", "properties": { "OBJECTID": 78, "GLOBAL_ID": "2EEEEA62-E9FD-4F44-9036-9E3F1916932F", "NAME": "CEFCU Stadium", "LATITUDE": "37-19-10.99N", "LONGITUDE": "121-52-05.84W", "CITY": "San Jose", "STATE": "CA", "STATUS_CODE": "Open", "OPENING_ON": null }, "geometry": { "type": "Point", "coordinates": [ -121.868301969453, 37.319724389598697 ] } },
{ "type": "Feature", "properties": { "OBJECTID": 79, "GLOBAL_ID": "A42D8C4F-0BA5-4855-A33A-8DB539DF4537", "NAME": "Chase Field", "LATITUDE": "33-26-42.97N", "LONGITUDE": "112-04-00.48W", "CITY": "Phoenix", "STATE": "AZ", "STATUS_CODE": "Open", "OPENING_ON": null }, "geometry": { "type": "Point", "coordinates": [ -112.066811017036997, 33.4452745610159 ] } },
{ "type": "Feature", "properties": { "OBJECTID": 80, "GLOBAL_ID": "D037C1D1-81DB-4501-97B5-3728163902C0", "NAME": "Rice Stadium", "LATITUDE": "29-42-58.78N", "LONGITUDE": "095-24-33.55W", "CITY": "Houston", "STATE": "TX", "STATUS_CODE": "Open", "OPENING_ON": null }, "geometry": { "type": "Point", "coordinates": [ -95.409326455466498, 29.7163329647334 ] } },
{ "type": "Feature", "properties": { "OBJECTID": 81, "GLOBAL_ID": "F3CF86AC-2345-4AD4-944A-E03E591BE86F", "NAME": "Rynearson Stadium", "LATITUDE": "42-15-21.31N", "LONGITUDE": "083-38-50.56W", "CITY": "Ypsilanti", "STATE": "MI", "STATUS_CODE": "Open", "OPENING_ON": null }, "geometry": { "type": "Point", "coordinates": [ -83.647382368214707, 42.255927575372503 ] } },
{ "type": "Feature", "properties": { "OBJECTID": 82, "GLOBAL_ID": "08186652-A40F-408F-A239-B0378D2FD428", "NAME": "Simmons Bank Liberty Stadium", "LATITUDE": "35-07-15.92N", "LONGITUDE": "089-58-38.67W", "CITY": "Memphis", "STATE": "TN", "STATUS_CODE": "Open", "OPENING_ON": null }, "geometry": { "type": "Point", "coordinates": [ -89.977414197746597, 35.121095378402302 ] } },
{ "type": "Feature", "properties": { "OBJECTID": 83, "GLOBAL_ID": "B322CB57-2928-40D2-B061-DC8008A7400D", "NAME": "Malone Stadium", "LATITUDE": "32-31-51.31N", "LONGITUDE": "092-03-57.56W", "CITY": "Monroe", "STATE": "LA", "STATUS_CODE": "Open", "OPENING_ON": null }, "geometry": { "type": "Point", "coordinates": [ -92.065995165305793, 32.530925327976298 ] } },
{ "type": "Feature", "properties": { "OBJECTID": 84, "GLOBAL_ID": "9AA0001C-017D-46A6-B447-D202291D31B0", "NAME": "Legion Field", "LATITUDE": "33-30-41.36N", "LONGITUDE": "086-50-33.54W", "CITY": "Birmingham", "STATE": "AL", "STATUS_CODE": "Open", "OPENING_ON": null }, "geometry": { "type": "Point", "coordinates": [ -86.842654891609598, 33.511495180179899 ] } },
{ "type": "Feature", "properties": { "OBJECTID": 85, "GLOBAL_ID": "801D132A-84A3-4B21-A941-4F24CA9E999B", "NAME": "Great American Ball Park", "LATITUDE": "39-05-49.95N", "LONGITUDE": "084-30-23.25W", "CITY": "Cincinnati", "STATE": "OH", "STATUS_CODE": "Open", "OPENING_ON": null }, "geometry": { "type": "Point", "coordinates": [ -84.506462915477101, 39.097215843523998 ] } },
{ "type": "Feature", "properties": { "OBJECTID": 86, "GLOBAL_ID": "47F2F46A-DE0D-4ED5-91BD-C7A5FB5589AC", "NAME": "M.M. Roberts Stadium", "LATITUDE": "31-19-44.29N", "LONGITUDE": "089-19-52.42W", "CITY": "Hattiesburg", "STATE": "MS", "STATUS_CODE": "Open", "OPENING_ON": null }, "geometry": { "type": "Point", "coordinates": [ -89.331233250717105, 31.328975179960899 ] } },
{ "type": "Feature", "properties": { "OBJECTID": 87, "GLOBAL_ID": "0746EE43-7E6C-4B27-8354-ADE475868390", "NAME": "Pocono Raceway", "LATITUDE": "41-03-20.44N", "LONGITUDE": "075-30-47.48W", "CITY": "Long Pond", "STATE": "PA", "STATUS_CODE": "Open", "OPENING_ON": null }, "geometry": { "type": "Point", "coordinates": [ -75.513190840667704, 41.055686046308502 ] } },
{ "type": "Feature", "properties": { "OBJECTID": 88, "GLOBAL_ID": "C3DB3E34-8396-452D-A432-A19F68985AEE", "NAME": "Busch Stadium", "LATITUDE": "38-37-21.28N", "LONGITUDE": "090-11-35.01W", "CITY": "Saint Louis", "STATE": "MO", "STATUS_CODE": "Open", "OPENING_ON": null }, "geometry": { "type": "Point", "coordinates": [ -90.193064519991594, 38.622584918891199 ] } },
{ "type": "Feature", "properties": { "OBJECTID": 89, "GLOBAL_ID": "3E082A42-251C-43FA-8EC4-EAC3E0A8D5B7", "NAME": "Kansas Speedway", "LATITUDE": "39-06-56.84N", "LONGITUDE": "094-49-51.42W", "CITY": "Kansas City", "STATE": "KS", "STATUS_CODE": "Open", "OPENING_ON": null }, "geometry": { "type": "Point", "coordinates": [ -94.830957503451202, 39.115795860497698 ] } },
{ "type": "Feature", "properties": { "OBJECTID": 90, "GLOBAL_ID": "BD32E7D9-7F32-4B3A-B450-35C14104A0C2", "NAME": "Kauffman Stadium", "LATITUDE": "39-03-05.90N", "LONGITUDE": "094-28-49.54W", "CITY": "Kansas City", "STATE": "MO", "STATUS_CODE": "Open", "OPENING_ON": null }, "geometry": { "type": "Point", "coordinates": [ -94.480435181432199, 39.051645869932401 ] } },
{ "type": "Feature", "properties": { "OBJECTID": 91, "GLOBAL_ID": "18620993-97E9-49AA-AD35-C4A9C0940FC4", "NAME": "GEHA Field at Arrowhead Stadium", "LATITUDE": "39-02-56.09N", "LONGITUDE": "094-29-02.43W", "CITY": "Kansas City", "STATE": "MO", "STATUS_CODE": "Open", "OPENING_ON": null }, "geometry": { "type": "Point", "coordinates": [ -94.484015737135294, 39.048920869264499 ] } },
{ "type": "Feature", "properties": { "OBJECTID": 92, "GLOBAL_ID": "EA212E33-9467-4392-9095-CEE03AA93F33", "NAME": "Lincoln Financial Field", "LATITUDE": "39-54-02.80N", "LONGITUDE": "075-10-02.74W", "CITY": "Philadelphia", "STATE": "PA", "STATUS_CODE": "Open", "OPENING_ON": null }, "geometry": { "type": "Point", "coordinates": [ -75.167429547030693, 39.900785832838402 ] } },
{ "type": "Feature", "properties": { "OBJECTID": 93, "GLOBAL_ID": "8DE854BF-EA31-4EA9-AB80-277B72EEDFF4", "NAME": "Alamodome", "LATITUDE": "29-25-00.84N", "LONGITUDE": "098-28-44.33W", "CITY": "San Antonio", "STATE": "TX", "STATUS_CODE": "Open", "OPENING_ON": null }, "geometry": { "type": "Point", "coordinates": [ -98.478988324861106, 29.4169050225705 ] } },
{ "type": "Feature", "properties": { "OBJECTID": 94, "GLOBAL_ID": "5E8AC746-18BF-4365-B995-C4FDB798C5E3", "NAME": "Levi's Stadium", "LATITUDE": "37-24-10.80N", "LONGITUDE": "121-58-12.00W", "CITY": "Santa Clara", "STATE": "CA", "STATUS_CODE": "Open", "OPENING_ON": null }, "geometry": { "type": "Point", "coordinates": [ -121.970013105183995, 37.403004945486302 ] } },
{ "type": "Feature", "properties": { "OBJECTID": 95, "GLOBAL_ID": "3C02D74A-CFD6-4F74-B826-4C3E517EDCD2", "NAME": "Ford Field", "LATITUDE": "42-20-24.17N", "LONGITUDE": "083-02-44.30W", "CITY": "Detroit", "STATE": "MI", "STATUS_CODE": "Open", "OPENING_ON": null }, "geometry": { "type": "Point", "coordinates": [ -83.045643302452405, 42.340055398581299 ] } },
{ "type": "Feature", "properties": { "OBJECTID": 96, "GLOBAL_ID": "11304B04-D8EC-415B-8037-22BCE76569FD", "NAME": "Stanford Stadium", "LATITUDE": "37-26-04.20N", "LONGITUDE": "122-09-39.99W", "CITY": "Stanford", "STATE": "CA", "STATUS_CODE": "Open", "OPENING_ON": null }, "geometry": { "type": "Point", "coordinates": [ -122.161121470577996, 37.434504934501497 ] } },
{ "type": "Feature", "properties": { "OBJECTID": 97, "GLOBAL_ID": "A6F44A6F-C603-42B7-9D84-1CAC9600F859", "NAME": "Lumen Field", "LATITUDE": "47-35-42.61N", "LONGITUDE": "122-19-53.62W", "CITY": "Seattle", "STATE": "WA", "STATUS_CODE": "Open", "OPENING_ON": null }, "geometry": { "type": "Point", "coordinates": [ -122.331576001856007, 47.595175060068499 ] } },
{ "type": "Feature", "properties": { "OBJECTID": 98, "GLOBAL_ID": "2633509B-C726-424A-A1E6-518704B1F3E0", "NAME": "Centennial Bank Stadium", "LATITUDE": "35-50-56.14N", "LONGITUDE": "090-40-01.92W", "CITY": "Jonesboro", "STATE": "AR", "STATUS_CODE": "Open", "OPENING_ON": null }, "geometry": { "type": "Point", "coordinates": [ -90.6672061043827, 35.848934377659297 ] } },
{ "type": "Feature", "properties": { "OBJECTID": 99, "GLOBAL_ID": "2A79083C-E4DD-412E-A6A8-CEA22B568452", "NAME": "loanDepot Park", "LATITUDE": "25-46-41.12N", "LONGITUDE": "080-13-10.30W", "CITY": "Miami", "STATE": "FL", "STATUS_CODE": "Open", "OPENING_ON": null }, "geometry": { "type": "Point", "coordinates": [ -80.219530466355593, 25.7780935758826 ] } },
{ "type": "Feature", "properties": { "OBJECTID": 100, "GLOBAL_ID": "A8F5A051-DEE8-48EA-815B-4235CF2B4873", "NAME": "Reser Stadium", "LATITUDE": "44-33-34.23N", "LONGITUDE": "123-16-53.07W", "CITY": "Corvallis", "STATE": "OR", "STATUS_CODE": "Open", "OPENING_ON": null }, "geometry": { "type": "Point", "coordinates": [ -123.281422714387006, 44.5595136808329 ] } },
{ "type": "Feature", "properties": { "OBJECTID": 101, "GLOBAL_ID": "7F24740C-1CFE-4A52-BF2B-87ED013C3E6F", "NAME": "Dover Motor Speedway", "LATITUDE": "39-11-23.62N", "LONGITUDE": "075-31-49.83W", "CITY": "Dover", "STATE": "DE", "STATUS_CODE": "Open", "OPENING_ON": null }, "geometry": { "type": "Point", "coordinates": [ -75.530510174081201, 39.189902343394202 ] } },
{ "type": "Feature", "properties": { "OBJECTID": 102, "GLOBAL_ID": "7FB96937-D770-49F7-AE64-25E05E3FED6D", "NAME": "Faurot Field at Memorial Stadium", "LATITUDE": "38-56-09.06N", "LONGITUDE": "092-19-59.48W", "CITY": "Columbia", "STATE": "MO", "STATUS_CODE": "Open", "OPENING_ON": null }, "geometry": { "type": "Point", "coordinates": [ -92.333195698211796, 38.935857081945201 ] } },
{ "type": "Feature", "properties": { "OBJECTID": 103, "GLOBAL_ID": "F78A7D55-B476-41AA-831C-BB5C1D2A09DF", "NAME": "Nippert Stadium", "LATITUDE": "39-07-52.35N", "LONGITUDE": "084-30-58.24W", "CITY": "Cincinnati", "STATE": "OH", "STATUS_CODE": "Open", "OPENING_ON": null }, "geometry": { "type": "Point", "coordinates": [ -84.516182365978295, 39.131215849525603 ] } },
{ "type": "Feature", "properties": { "OBJECTID": 104, "GLOBAL_ID": "EDE7A8EC-8654-477C-9A6C-59E0F9255321", "NAME": "Gillette Stadium", "LATITUDE": "42-05-27.29N", "LONGITUDE": "071-15-51.68W", "CITY": "Foxboro", "STATE": "MA", "STATUS_CODE": "Open", "OPENING_ON": null }, "geometry": { "type": "Point", "coordinates": [ -71.264356198517305, 42.090922504499297 ] } },
{ "type": "Feature", "properties": { "OBJECTID": 105, "GLOBAL_ID": "7FBACFA2-DBB3-4504-B030-BF16D2125621", "NAME": "Tiger Stadium", "LATITUDE": "30-24-43.30N", "LONGITUDE": "091-11-01.68W", "CITY": "Baton Rouge", "STATE": "LA", "STATUS_CODE": "Open", "OPENING_ON": null }, "geometry": { "type": "Point", "coordinates": [ -91.183805933287402, 30.412033253798899 ] } },
{ "type": "Feature", "properties": { "OBJECTID": 106, "GLOBAL_ID": "8EA46F18-06DF-4CC0-9F78-A67C138D728A", "NAME": "Carter-Finley Stadium", "LATITUDE": "35-48-02.77N", "LONGITUDE": "078-43-10.09W", "CITY": "Raleigh", "STATE": "NC", "STATUS_CODE": "Open", "OPENING_ON": null }, "geometry": { "type": "Point", "coordinates": [ -78.719472078406, 35.800776524356799 ] } },
{ "type": "Feature", "properties": { "OBJECTID": 107, "GLOBAL_ID": "26811BB1-6AD4-4C58-8927-C929E0970483", "NAME": "Texas Motor Speedway", "LATITUDE": "33-02-11.58N", "LONGITUDE": "097-16-56.02W", "CITY": "Fort Worth", "STATE": "TX", "STATUS_CODE": "Open", "OPENING_ON": null }, "geometry": { "type": "Point", "coordinates": [ -97.282235440749304, 33.036555764372601 ] } },
{ "type": "Feature", "properties": { "OBJECTID": 108, "GLOBAL_ID": "27ED65A8-DF97-42B0-ACA1-064E6AF30D36", "NAME": "Oracle Park", "LATITUDE": "37-46-42.23N", "LONGITUDE": "122-23-22.89W", "CITY": "San Francisco", "STATE": "CA", "STATUS_CODE": "Open", "OPENING_ON": null }, "geometry": { "type": "Point", "coordinates": [ -122.389704878158994, 37.778402168660598 ] } },
{ "type": "Feature", "properties": { "OBJECTID": 109, "GLOBAL_ID": "7D58FE0C-83B5-4860-8EAA-34D90CEA5824", "NAME": "Williams Brice Stadium", "LATITUDE": "33-58-23.12N", "LONGITUDE": "081-01-09.01W", "CITY": "Columbia", "STATE": "SC", "STATUS_CODE": "Open", "OPENING_ON": null }, "geometry": { "type": "Point", "coordinates": [ -81.019172672736403, 33.973095492970401 ] } },
{ "type": "Feature", "properties": { "OBJECTID": 110, "GLOBAL_ID": "A18E6B61-CD5D-44A2-BE6B-D1195A8A2308", "NAME": "Canvas Stadium", "LATITUDE": "40-34-11.64N", "LONGITUDE": "105-05-18.49W", "CITY": "Fort Collins", "STATE": "CO", "STATUS_CODE": "Open", "OPENING_ON": null }, "geometry": { "type": "Point", "coordinates": [ -105.088479674995995, 40.569906524923802 ] } },
{ "type": "Feature", "properties": { "OBJECTID": 111, "GLOBAL_ID": "9313F1CA-71FF-4260-87F0-1BF860BE2252", "NAME": "Amon G. Carter Stadium", "LATITUDE": "32-42-34.74N", "LONGITUDE": "097-22-05.16W", "CITY": "Fort Worth", "STATE": "TX", "STATUS_CODE": "Open", "OPENING_ON": null }, "geometry": { "type": "Point", "coordinates": [ -97.368107664379394, 32.7096556993843 ] } },
{ "type": "Feature", "properties": { "OBJECTID": 112, "GLOBAL_ID": "ACEF4C5B-12EE-4F1C-96B3-A53020748258", "NAME": "Comerica Park", "LATITUDE": "42-20-21.40N", "LONGITUDE": "083-02-55.79W", "CITY": "Detroit", "STATE": "MI", "STATUS_CODE": "Open", "OPENING_ON": null }, "geometry": { "type": "Point", "coordinates": [ -83.048834970363401, 42.339285954285401 ] } },
{ "type": "Feature", "properties": { "OBJECTID": 113, "GLOBAL_ID": "F65A8C33-155E-4C60-877F-5D8FE0D8291E", "NAME": "War Memorial Stadium (Arkansas)", "LATITUDE": "34-44-59.46N", "LONGITUDE": "092-19-48.32W", "CITY": "Little Rock", "STATE": "AR", "STATUS_CODE": "Open", "OPENING_ON": null }, "geometry": { "type": "Point", "coordinates": [ -92.330095371001804, 34.749856311678002 ] } },
{ "type": "Feature", "properties": { "OBJECTID": 114, "GLOBAL_ID": "7F4C1B26-6BC1-4140-B524-E196DB9E1025", "NAME": "Navy-Marine Corps Memorial Stadium", "LATITUDE": "38-59-05.10N", "LONGITUDE": "076-30-25.41W", "CITY": "Annapolis", "STATE": "MD", "STATUS_CODE": "Open", "OPENING_ON": null }, "geometry": { "type": "Point", "coordinates": [ -76.507060467917199, 38.984757822611797 ] } },
{ "type": "Feature", "properties": { "OBJECTID": 115, "GLOBAL_ID": "D7D5FDC5-78C6-4F87-98F6-71162CEA2F8E", "NAME": "Las Vegas Motor Speedway", "LATITUDE": "36-16-20.94N", "LONGITUDE": "115-00-37.08W", "CITY": "Las Vegas", "STATE": "NV", "STATUS_CODE": "Open", "OPENING_ON": null }, "geometry": { "type": "Point", "coordinates": [ -115.010311817578994, 36.272488635961203 ] } },
{ "type": "Feature", "properties": { "OBJECTID": 116, "GLOBAL_ID": "C60C7890-9670-41D0-B4CB-DE1AA7DD502F", "NAME": "Memorial Stadium (Nebraska)", "LATITUDE": "40-49-14.23N", "LONGITUDE": "096-42-20.16W", "CITY": "Lincoln", "STATE": "NE", "STATUS_CODE": "Open", "OPENING_ON": null }, "geometry": { "type": "Point", "coordinates": [ -96.705608177898498, 40.820626577612501 ] } },
{ "type": "Feature", "properties": { "OBJECTID": 117, "GLOBAL_ID": "B7479AE5-54B3-40D5-BEC2-91C905DF5499", "NAME": "Memorial Stadium (Indiana)", "LATITUDE": "39-10-51.20N", "LONGITUDE": "086-31-32.19W", "CITY": "Bloomington", "STATE": "IN", "STATUS_CODE": "Open", "OPENING_ON": null }, "geometry": { "type": "Point", "coordinates": [ -86.525613516139103, 39.180896318423898 ] } },
{ "type": "Feature", "properties": { "OBJECTID": 118, "GLOBAL_ID": "33DC987D-C0B3-4129-AF74-579A3BCCEC41", "NAME": "Notre Dame Stadium", "LATITUDE": "41-41-54.13N", "LONGITUDE": "086-14-02.04W", "CITY": "Notre Dame", "STATE": "IN", "STATUS_CODE": "Open", "OPENING_ON": null }, "geometry": { "type": "Point", "coordinates": [ -86.233905318762197, 41.6983773425927 ] } },
{ "type": "Feature", "properties": { "OBJECTID": 119, "GLOBAL_ID": "FCE1CC31-CC92-404E-A3B8-87F442AB5242", "NAME": "Jack Trice Stadium", "LATITUDE": "42-00-50.36N", "LONGITUDE": "093-38-08.73W", "CITY": "Ames", "STATE": "IA", "STATUS_CODE": "Open", "OPENING_ON": null }, "geometry": { "type": "Point", "coordinates": [ -93.6357658151653, 42.0139964069173 ] } },
{ "type": "Feature", "properties": { "OBJECTID": 120, "GLOBAL_ID": "35F1F2CF-41F7-49D3-BCB4-3143DF255B5A", "NAME": "Cleveland Browns Stadium", "LATITUDE": "41-30-21.69N", "LONGITUDE": "081-41-58.46W", "CITY": "Cleveland", "STATE": "OH", "STATUS_CODE": "Open", "OPENING_ON": null }, "geometry": { "type": "Point", "coordinates": [ -81.699576148605999, 41.506033091678397 ] } },
{ "type": "Feature", "properties": { "OBJECTID": 121, "GLOBAL_ID": "C227CA26-6125-49DE-9538-B8E383B68769", "NAME": "Progressive Field", "LATITUDE": "41-29-44.83N", "LONGITUDE": "081-41-07.07W", "CITY": "Cleveland", "STATE": "OH", "STATUS_CODE": "Open", "OPENING_ON": null }, "geometry": { "type": "Point", "coordinates": [ -81.6853011433559, 41.495794201473302 ] } },
{ "type": "Feature", "properties": { "OBJECTID": 122, "GLOBAL_ID": "D3D480E0-1FD3-426E-8F09-FA969121712A", "NAME": "Kenan Memorial Stadium", "LATITUDE": "35-54-24.98N", "LONGITUDE": "079-02-52.40W", "CITY": "Chapel Hill", "STATE": "NC", "STATUS_CODE": "Open", "OPENING_ON": null }, "geometry": { "type": "Point", "coordinates": [ -79.047891628530806, 35.906945980342499 ] } },
{ "type": "Feature", "properties": { "OBJECTID": 123, "GLOBAL_ID": "F7513EBB-0ACA-436D-AF3C-A0B82535A728", "NAME": "Jones AT&T Stadium", "LATITUDE": "33-35-27.90N", "LONGITUDE": "101-52-22.50W", "CITY": "Lubbock", "STATE": "TX", "STATUS_CODE": "Open", "OPENING_ON": null }, "geometry": { "type": "Point", "coordinates": [ -101.872925487744993, 33.591088985272101 ] } },
{ "type": "Feature", "properties": { "OBJECTID": 124, "GLOBAL_ID": "04B0E1E7-D02E-4814-B0F3-C9BE2D246462", "NAME": "Kroger Field", "LATITUDE": "38-01-21.86N", "LONGITUDE": "084-30-18.61W", "CITY": "Lexington", "STATE": "KY", "STATUS_CODE": "Open", "OPENING_ON": null }, "geometry": { "type": "Point", "coordinates": [ -84.505173946305206, 38.022746192816001 ] } },
{ "type": "Feature", "properties": { "OBJECTID": 125, "GLOBAL_ID": "99568BA8-379B-4C37-8B1F-7E8F3EC40B85", "NAME": "Auto Club Speedway", "LATITUDE": "34-05-18.63N", "LONGITUDE": "117-30-02.60W", "CITY": "Fontana", "STATE": "CA", "STATUS_CODE": "Open", "OPENING_ON": null }, "geometry": { "type": "Point", "coordinates": [ -117.500734286213003, 34.088513235070103 ] } },
{ "type": "Feature", "properties": { "OBJECTID": 126, "GLOBAL_ID": "4513E433-C381-4779-9DC3-7F3137CB21FD", "NAME": "Donald W. Reynolds Razorback Stadium", "LATITUDE": "36-04-05.12N", "LONGITUDE": "094-10-44.18W", "CITY": "Fayetteville", "STATE": "AR", "STATUS_CODE": "Open", "OPENING_ON": null }, "geometry": { "type": "Point", "coordinates": [ -94.178945958497494, 36.068095360433801 ] } },
{ "type": "Feature", "properties": { "OBJECTID": 127, "GLOBAL_ID": "689C23A4-B260-4A66-B210-CA4003B1F3E0", "NAME": "Paycor Stadium", "LATITUDE": "39-05-43.65N", "LONGITUDE": "084-30-57.78W", "CITY": "Cincinnati", "STATE": "OH", "STATUS_CODE": "Open", "OPENING_ON": null }, "geometry": { "type": "Point", "coordinates": [ -84.516054585187206, 39.0954658427436 ] } },
{ "type": "Feature", "properties": { "OBJECTID": 128, "GLOBAL_ID": "805EEBB5-5445-4596-8742-AF2CDCD874AA", "NAME": "Wallace Wade Stadium", "LATITUDE": "35-59-43.18N", "LONGITUDE": "078-56-30.22W", "CITY": "Durham", "STATE": "NC", "STATUS_CODE": "Open", "OPENING_ON": null }, "geometry": { "type": "Point", "coordinates": [ -78.941730490185293, 35.995334891964099 ] } },
{ "type": "Feature", "properties": { "OBJECTID": 129, "GLOBAL_ID": "FC9164A7-0764-4A37-A3CF-54BD666E19D0", "NAME": "Richmond Raceway", "LATITUDE": "37-35-30.26N", "LONGITUDE": "077-25-12.32W", "CITY": "Richmond", "STATE": "VA", "STATUS_CODE": "Open", "OPENING_ON": null }, "geometry": { "type": "Point", "coordinates": [ -77.420091225349594, 37.591746393256898 ] } },
{ "type": "Feature", "properties": { "OBJECTID": 130, "GLOBAL_ID": "9564EA07-E1E7-4250-A204-03DF103CA2FC", "NAME": "David Booth Kansas Memorial Stadium", "LATITUDE": "38-57-46.96N", "LONGITUDE": "095-14-46.81W", "CITY": "Lawrence", "STATE": "KS", "STATUS_CODE": "Open", "OPENING_ON": null }, "geometry": { "type": "Point", "coordinates": [ -95.246343710598893, 38.963051365677799 ] } },
{ "type": "Feature", "properties": { "OBJECTID": 131, "GLOBAL_ID": "75806964-84A7-40CF-8F57-9FB852C9CEEC", "NAME": "Atlanta Motor Speedway", "LATITUDE": "33-23-01.43N", "LONGITUDE": "084-19-04.27W", "CITY": "Hampton", "STATE": "GA", "STATUS_CODE": "Open", "OPENING_ON": null }, "geometry": { "type": "Point", "coordinates": [ -84.317856941441903, 33.383736914409901 ] } },
{ "type": "Feature", "properties": { "OBJECTID": 132, "GLOBAL_ID": "12E76DB0-4001-47ED-8683-6AC1DDF16A6A", "NAME": "Kentucky Speedway", "LATITUDE": "38-42-38.46N", "LONGITUDE": "084-54-56.15W", "CITY": "Sparta", "STATE": "KY", "STATUS_CODE": "Open", "OPENING_ON": null }, "geometry": { "type": "Point", "coordinates": [ -84.915601895965807, 38.7106907508227 ] } },
{ "type": "Feature", "properties": { "OBJECTID": 133, "GLOBAL_ID": "D2F759EE-E1E3-4FB3-B369-E518AE4BBCF2", "NAME": "Skelly Field at H.A. Chapman Stadium", "LATITUDE": "36-08-55.93N", "LONGITUDE": "095-56-37.53W", "CITY": "Tulsa", "STATE": "OK", "STATUS_CODE": "Open", "OPENING_ON": null }, "geometry": { "type": "Point", "coordinates": [ -95.943765871665093, 36.148875840441796 ] } },
{ "type": "Feature", "properties": { "OBJECTID": 134, "GLOBAL_ID": "18EAF107-7F1D-4620-89C7-E0D25E647A9E", "NAME": "Guaranteed Rate Field", "LATITUDE": "41-49-47.46N", "LONGITUDE": "087-38-01.14W", "CITY": "Chicago", "STATE": "IL", "STATUS_CODE": "Open", "OPENING_ON": null }, "geometry": { "type": "Point", "coordinates": [ -87.633655746150296, 41.829857845127798 ] } },
{ "type": "Feature", "properties": { "OBJECTID": 135, "GLOBAL_ID": "DE2CF953-E1DA-4FFD-87B9-6D086FA1027F", "NAME": "Falcon Stadium", "LATITUDE": "38-59-49.41N", "LONGITUDE": "104-50-36.52W", "CITY": "USAFA", "STATE": "CO", "STATUS_CODE": "Open", "OPENING_ON": null }, "geometry": { "type": "Point", "coordinates": [ -104.843487768767005, 38.997064658494502 ] } },
{ "type": "Feature", "properties": { "OBJECTID": 136, "GLOBAL_ID": "1CCB187E-87AB-44AC-9236-08AA7C78CEF4", "NAME": "Indianapolis Motor Speedway", "LATITUDE": "39-47-41.64N", "LONGITUDE": "086-14-05.46W", "CITY": "Indianapolis", "STATE": "IN", "STATUS_CODE": "Open", "OPENING_ON": null }, "geometry": { "type": "Point", "coordinates": [ -86.234855148755301, 39.794907557331399 ] } },
{ "type": "Feature", "properties": { "OBJECTID": 137, "GLOBAL_ID": "2449DF3E-E588-4504-86CD-4B4D5F81B5FF", "NAME": "Vanderbilt Stadium", "LATITUDE": "36-08-38.50N", "LONGITUDE": "086-48-32.12W", "CITY": "Nashville", "STATE": "TN", "STATUS_CODE": "Open", "OPENING_ON": null }, "geometry": { "type": "Point", "coordinates": [ -86.808927263275606, 36.1440346095047 ] } },
{ "type": "Feature", "properties": { "OBJECTID": 138, "GLOBAL_ID": "E935027B-3DC7-4693-8F3C-CD9649461096", "NAME": "Jim Wacker Field at Bobcat Stadium", "LATITUDE": "29-53-27.82N", "LONGITUDE": "097-55-31.94W", "CITY": "San Marcos", "STATE": "TX", "STATUS_CODE": "Open", "OPENING_ON": null }, "geometry": { "type": "Point", "coordinates": [ -97.925546542621504, 29.891066246083401 ] } },
{ "type": "Feature", "properties": { "OBJECTID": 139, "GLOBAL_ID": "50916EE4-EAAE-4C62-A772-6C7FF59E3F91", "NAME": "Cardinal Stadium", "LATITUDE": "38-12-21.24N", "LONGITUDE": "085-45-31.64W", "CITY": "Louisville", "STATE": "KY", "STATUS_CODE": "Open", "OPENING_ON": null }, "geometry": { "type": "Point", "coordinates": [ -85.758793772358999, 38.205907281955099 ] } },
{ "type": "Feature", "properties": { "OBJECTID": 140, "GLOBAL_ID": "25B676C5-4451-4B65-97E8-C1D09D6C52C0", "NAME": "Davis Wade Stadium", "LATITUDE": "33-27-22.92N", "LONGITUDE": "088-47-36.16W", "CITY": "Starkville", "STATE": "MS", "STATUS_CODE": "Open", "OPENING_ON": null }, "geometry": { "type": "Point", "coordinates": [ -88.793383213249697, 33.456372870428901 ] } },
{ "type": "Feature", "properties": { "OBJECTID": 141, "GLOBAL_ID": "70A74187-C115-495D-AC83-B43161583A6F", "NAME": "Sun Devil Stadium", "LATITUDE": "33-25-35.07N", "LONGITUDE": "111-55-57.10W", "CITY": "Tempe", "STATE": "AZ", "STATUS_CODE": "Open", "OPENING_ON": null }, "geometry": { "type": "Point", "coordinates": [ -111.932538767362999, 33.426413454434702 ] } },
{ "type": "Feature", "properties": { "OBJECTID": 142, "GLOBAL_ID": "2D22BAD8-9342-455F-9FD8-9BA191CC34B7", "NAME": "Rose Bowl", "LATITUDE": "34-09-40.64N", "LONGITUDE": "118-10-03.28W", "CITY": "Pasadena", "STATE": "CA", "STATUS_CODE": "Open", "OPENING_ON": null }, "geometry": { "type": "Point", "coordinates": [ -118.167589961366005, 34.161293761367602 ] } },
{ "type": "Feature", "properties": { "OBJECTID": 143, "GLOBAL_ID": "446F812C-DC7F-4A06-B27B-E95E457B4D86", "NAME": "Boone Pickens Stadium", "LATITUDE": "36-07-32.40N", "LONGITUDE": "097-03-59.20W", "CITY": "Stillwater", "STATE": "OK", "STATUS_CODE": "Open", "OPENING_ON": null }, "geometry": { "type": "Point", "coordinates": [ -97.066452270086401, 36.125673000994603 ] } },
{ "type": "Feature", "properties": { "OBJECTID": 144, "GLOBAL_ID": "F23E798A-1FA2-4F0B-A28D-2088DA3D0528", "NAME": "Bobby Dodd Stadium", "LATITUDE": "33-46-21.00N", "LONGITUDE": "084-23-34.26W", "CITY": "Atlanta", "STATE": "GA", "STATUS_CODE": "Open", "OPENING_ON": null }, "geometry": { "type": "Point", "coordinates": [ -84.392854205484397, 33.7725064391839 ] } },
{ "type": "Feature", "properties": { "OBJECTID": 145, "GLOBAL_ID": "0B153F2E-E8CE-483C-900C-AB8353C7D1F4", "NAME": "Truist Park", "LATITUDE": "33-53-26.26N", "LONGITUDE": "084-28-03.47W", "CITY": "Atlanta", "STATE": "GA", "STATUS_CODE": "Open", "OPENING_ON": null }, "geometry": { "type": "Point", "coordinates": [ -84.467634789402993, 33.890634239632597 ] } },
{ "type": "Feature", "properties": { "OBJECTID": 146, "GLOBAL_ID": "1B70604B-B2F0-4B2C-8FFC-97FE487A235D", "NAME": "Joan C. Edwards Stadium", "LATITUDE": "38-25-29.74N", "LONGITUDE": "082-25-15.31W", "CITY": "Huntington", "STATE": "WV", "STATUS_CODE": "Open", "OPENING_ON": null }, "geometry": { "type": "Point", "coordinates": [ -82.420923354986101, 38.424935252279703 ] } },
{ "type": "Feature", "properties": { "OBJECTID": 147, "GLOBAL_ID": "90DF645E-133F-4F3C-959C-EC11ADEE67C3", "NAME": "Pratt & Whitney Stadium at Rentschler Field", "LATITUDE": "41-45-34.63N", "LONGITUDE": "072-37-07.78W", "CITY": "Hartford", "STATE": "CT", "STATUS_CODE": "Open", "OPENING_ON": null }, "geometry": { "type": "Point", "coordinates": [ -72.618828842604998, 41.759627951334203 ] } },
{ "type": "Feature", "properties": { "OBJECTID": 148, "GLOBAL_ID": "975D91AD-59D7-45EE-8A6F-ED79B75704EE", "NAME": "Mackay Stadium", "LATITUDE": "39-32-48.91N", "LONGITUDE": "119-49-03.14W", "CITY": "Reno", "STATE": "NV", "STATUS_CODE": "Open", "OPENING_ON": null }, "geometry": { "type": "Point", "coordinates": [ -119.817551916100001, 39.5469247361765 ] } },
{ "type": "Feature", "properties": { "OBJECTID": 149, "GLOBAL_ID": "7444ACAE-9D77-4CA6-B6A3-A1DE197FCDE5", "NAME": "Kelly/Shorts Stadium", "LATITUDE": "43-34-39.43N", "LONGITUDE": "084-46-14.95W", "CITY": "Mount Pleasant", "STATE": "MI", "STATUS_CODE": "Open", "OPENING_ON": null }, "geometry": { "type": "Point", "coordinates": [ -84.770824506970499, 43.577627744086101 ] } },
{ "type": "Feature", "properties": { "OBJECTID": 150, "GLOBAL_ID": "8CCDB64E-F9CE-44C8-9A2E-32D0CCDE4B31", "NAME": "Ohio Stadium", "LATITUDE": "40-00-06.04N", "LONGITUDE": "083-01-10.99W", "CITY": "Columbus", "STATE": "OH", "STATUS_CODE": "Open", "OPENING_ON": null }, "geometry": { "type": "Point", "coordinates": [ -83.019723651865903, 40.001685528785998 ] } },
{ "type": "Feature", "properties": { "OBJECTID": 151, "GLOBAL_ID": "001E89FB-8863-4DAA-A124-33F86F1D4FB1", "NAME": "Husky Stadium (Washington)", "LATITUDE": "47-39-01.08N", "LONGITUDE": "122-18-05.61W", "CITY": "Seattle", "STATE": "WA", "STATUS_CODE": "Open", "OPENING_ON": null }, "geometry": { "type": "Point", "coordinates": [ -122.301573232273995, 47.650305622255097 ] } },
{ "type": "Feature", "properties": { "OBJECTID": 152, "GLOBAL_ID": "265166C6-8A2C-4CFE-82CA-649757305F49", "NAME": "Iowa Speedway", "LATITUDE": "41-40-29.03N", "LONGITUDE": "093-00-47.85W", "CITY": "Newton", "STATE": "IA", "STATUS_CODE": "Open", "OPENING_ON": null }, "geometry": { "type": "Point", "coordinates": [ -93.013298938300196, 41.674738058775603 ] } },
{ "type": "Feature", "properties": { "OBJECTID": 153, "GLOBAL_ID": "74E1506D-C518-44E1-8297-BC773BE8F848", "NAME": "Soldier Field", "LATITUDE": "41-51-44.48N", "LONGITUDE": "087-37-00.11W", "CITY": "Chicago", "STATE": "IL", "STATUS_CODE": "Open", "OPENING_ON": null }, "geometry": { "type": "Point", "coordinates": [ -87.616702966386001, 41.862363407646598 ] } },
{ "type": "Feature", "properties": { "OBJECTID": 154, "GLOBAL_ID": "F69CC845-9E39-48BF-A007-F62D259F95D0", "NAME": "California Memorial Stadium", "LATITUDE": "37-52-15.60N", "LONGITUDE": "122-15-02.55W", "CITY": "Berkeley", "STATE": "CA", "STATUS_CODE": "Open", "OPENING_ON": null }, "geometry": { "type": "Point", "coordinates": [ -122.250721534088001, 37.871004964479802 ] } },
{ "type": "Feature", "properties": { "OBJECTID": 155, "GLOBAL_ID": "AADBA228-DD68-4DF6-82D9-9260E028008B", "NAME": "Caesars Superdome", "LATITUDE": "29-57-03.79N", "LONGITUDE": "090-04-52.73W", "CITY": "New Orleans", "STATE": "LA", "STATUS_CODE": "Open", "OPENING_ON": null }, "geometry": { "type": "Point", "coordinates": [ -90.081319504047102, 29.951058191091299 ] } },
{ "type": "Feature", "properties": { "OBJECTID": 156, "GLOBAL_ID": "303AA4D7-B4F3-4717-A823-4C98968A4286", "NAME": "Arizona Stadium", "LATITUDE": "32-13-43.98N", "LONGITUDE": "110-56-55.66W", "CITY": "Tucson", "STATE": "AZ", "STATUS_CODE": "Open", "OPENING_ON": null }, "geometry": { "type": "Point", "coordinates": [ -110.948805155342995, 32.228888334546099 ] } },
{ "type": "Feature", "properties": { "OBJECTID": 157, "GLOBAL_ID": "EE692294-392A-4AC3-8AA5-BB7724073C12", "NAME": "Watkins Glen International", "LATITUDE": "42-20-10.21N", "LONGITUDE": "076-55-33.56W", "CITY": "Watkins Glen", "STATE": "NY", "STATUS_CODE": "Open", "OPENING_ON": null }, "geometry": { "type": "Point", "coordinates": [ -76.9259913813098, 42.336177898778701 ] } },
{ "type": "Feature", "properties": { "OBJECTID": 158, "GLOBAL_ID": "A54B9201-D762-43DC-B4CE-A3D7769476E9", "NAME": "Nissan Stadium", "LATITUDE": "36-09-59.22N", "LONGITUDE": "086-46-16.60W", "CITY": "Nashville", "STATE": "TN", "STATUS_CODE": "Open", "OPENING_ON": null }, "geometry": { "type": "Point", "coordinates": [ -86.771282809995299, 36.166456837612301 ] } },
{ "type": "Feature", "properties": { "OBJECTID": 159, "GLOBAL_ID": "5089AC10-B1E7-4D72-B49E-17A0A9F49BB5", "NAME": "Jordan-Hare Stadium", "LATITUDE": "32-36-07.91N", "LONGITUDE": "085-29-21.08W", "CITY": "Auburn", "STATE": "AL", "STATUS_CODE": "Open", "OPENING_ON": null }, "geometry": { "type": "Point", "coordinates": [ -85.489193348765397, 32.602203369118698 ] } },
{ "type": "Feature", "properties": { "OBJECTID": 160, "GLOBAL_ID": "18AE672C-B5A6-4183-8D19-56E99E80C333", "NAME": "Gaylord Family-Oklahoma Memorial Stadium", "LATITUDE": "35-12-21.02N", "LONGITUDE": "097-26-32.31W", "CITY": "Norman", "STATE": "OK", "STATUS_CODE": "Open", "OPENING_ON": null }, "geometry": { "type": "Point", "coordinates": [ -97.442316183957402, 35.205845041403897 ] } },
{ "type": "Feature", "properties": { "OBJECTID": 161, "GLOBAL_ID": "EA9CDE38-5E4D-4B77-ABC0-088D1CF706BB", "NAME": "Memorial Stadium (Illinois)", "LATITUDE": "40-05-57.63N", "LONGITUDE": "088-14-09.44W", "CITY": "Champaign", "STATE": "IL", "STATUS_CODE": "Open", "OPENING_ON": null }, "geometry": { "type": "Point", "coordinates": [ -88.235961314345104, 40.099349176451902 ] } },
{ "type": "Feature", "properties": { "OBJECTID": 162, "GLOBAL_ID": "0F744A40-0A48-4061-8C54-D82621C1E3A6", "NAME": "FBC Mortgage Stadium", "LATITUDE": "28-36-29.70N", "LONGITUDE": "081-11-33.32W", "CITY": "Orlando", "STATE": "FL", "STATUS_CODE": "Open", "OPENING_ON": null }, "geometry": { "type": "Point", "coordinates": [ -81.192591945411394, 28.608255364161899 ] } },
{ "type": "Feature", "properties": { "OBJECTID": 163, "GLOBAL_ID": "00467B68-EC55-4A13-B425-F49DD0C160F5", "NAME": "Bank of America Stadium", "LATITUDE": "35-13-32.91N", "LONGITUDE": "080-51-10.15W", "CITY": "Charlotte", "STATE": "NC", "STATUS_CODE": "Open", "OPENING_ON": null }, "geometry": { "type": "Point", "coordinates": [ -80.852822688685606, 35.225815213703299 ] } },
{ "type": "Feature", "properties": { "OBJECTID": 164, "GLOBAL_ID": "D501E5C1-6CA7-4B92-B403-993FFF985043", "NAME": "United Airlines Field at the Los Angeles Memorial Coliseum", "LATITUDE": "34-00-50.61N", "LONGITUDE": "118-17-16.65W", "CITY": "Los Angeles", "STATE": "CA", "STATUS_CODE": "Open", "OPENING_ON": null }, "geometry": { "type": "Point", "coordinates": [ -118.287970524510996, 34.014063182282896 ] } },
{ "type": "Feature", "properties": { "OBJECTID": 165, "GLOBAL_ID": "2602A849-E1EC-4C48-B3E9-7EE854BB7D0C", "NAME": "Phoenix Raceway", "LATITUDE": "33-22-30.36N", "LONGITUDE": "112-18-41.82W", "CITY": "Phoenix", "STATE": "AZ", "STATUS_CODE": "Open", "OPENING_ON": null }, "geometry": { "type": "Point", "coordinates": [ -112.311627726544998, 33.375105094709099 ] } },
{ "type": "Feature", "properties": { "OBJECTID": 166, "GLOBAL_ID": "56373092-1A37-4FBA-9BBB-E48E57C56346", "NAME": "LaVell Edwards Stadium", "LATITUDE": "40-15-27.10N", "LONGITUDE": "111-39-16.16W", "CITY": "Provo", "STATE": "UT", "STATUS_CODE": "Open", "OPENING_ON": null }, "geometry": { "type": "Point", "coordinates": [ -111.654500509987997, 40.257533776651897 ] } },
{ "type": "Feature", "properties": { "OBJECTID": 167, "GLOBAL_ID": "9B1BFCE2-F2B9-4635-813C-90A9708EB420", "NAME": "Minute Maid Park", "LATITUDE": "29-45-25.84N", "LONGITUDE": "095-21-19.94W", "CITY": "Houston", "STATE": "TX", "STATUS_CODE": "Open", "OPENING_ON": null }, "geometry": { "type": "Point", "coordinates": [ -95.355545888508502, 29.7571829749226 ] } },
{ "type": "Feature", "properties": { "OBJECTID": 168, "GLOBAL_ID": "493015CA-EC23-47FC-8114-95E1E583DC4F", "NAME": "Daytona International Speedway", "LATITUDE": "29-11-06.36N", "LONGITUDE": "081-04-17.00W", "CITY": "Daytona Beach", "STATE": "FL", "STATUS_CODE": "Open", "OPENING_ON": null }, "geometry": { "type": "Point", "coordinates": [ -81.071391929927003, 29.185105505848199 ] } },
{ "type": "Feature", "properties": { "OBJECTID": 169, "GLOBAL_ID": "E719B41A-5F1D-4A01-B839-8161DD7F6C45", "NAME": "Nationals Park", "LATITUDE": "38-52-22.98N", "LONGITUDE": "077-00-26.64W", "CITY": "Washington", "STATE": "DC", "STATUS_CODE": "Open", "OPENING_ON": null }, "geometry": { "type": "Point", "coordinates": [ -77.007402284198605, 38.873057781563098 ] } },
{ "type": "Feature", "properties": { "OBJECTID": 170, "GLOBAL_ID": "865AD3D4-2202-4441-9C1F-02CF15D64B65", "NAME": "SHI Stadium", "LATITUDE": "40-30-48.85N", "LONGITUDE": "074-27-55.04W", "CITY": "Piscataway", "STATE": "NJ", "STATUS_CODE": "Open", "OPENING_ON": null }, "geometry": { "type": "Point", "coordinates": [ -74.465290472179902, 40.513577645079899 ] } },
{ "type": "Feature", "properties": { "OBJECTID": 171, "GLOBAL_ID": "947E3D2A-2AA6-4BE5-8E5F-E267519CD573", "NAME": "Huntington Bank Stadium", "LATITUDE": "44-58-35.61N", "LONGITUDE": "093-13-28.34W", "CITY": "Minneapolis", "STATE": "MN", "STATUS_CODE": "Open", "OPENING_ON": null }, "geometry": { "type": "Point", "coordinates": [ -93.224546628332604, 44.9765663290056 ] } },
{ "type": "Feature", "properties": { "OBJECTID": 172, "GLOBAL_ID": "128770FE-1070-4575-BB70-5B327C3CCAC4", "NAME": "Citi Field", "LATITUDE": "40-45-25.34N", "LONGITUDE": "073-50-45.20W", "CITY": "Flushing", "STATE": "NY", "STATUS_CODE": "Open", "OPENING_ON": null }, "geometry": { "type": "Point", "coordinates": [ -73.845890288894097, 40.757047159671103 ] } },
{ "type": "Feature", "properties": { "OBJECTID": 173, "GLOBAL_ID": "6C41B584-DAF1-4CDF-A85A-575CB9B7B0DD", "NAME": "Scott Stadium", "LATITUDE": "38-01-52.03N", "LONGITUDE": "078-30-49.28W", "CITY": "Charlotttesville", "STATE": "VA", "STATUS_CODE": "Open", "OPENING_ON": null }, "geometry": { "type": "Point", "coordinates": [ -78.513691587707299, 38.031126998016703 ] } },
{ "type": "Feature", "properties": { "OBJECTID": 174, "GLOBAL_ID": "4F156BEA-8AC9-486A-AF47-F27B3F1E9E70", "NAME": "Ladd-Peebles Stadium", "LATITUDE": "30-40-23.04N", "LONGITUDE": "088-04-32.28W", "CITY": "Mobile", "STATE": "AL", "STATUS_CODE": "Open", "OPENING_ON": null }, "geometry": { "type": "Point", "coordinates": [ -88.075638429029098, 30.673072303805199 ] } },
{ "type": "Feature", "properties": { "OBJECTID": 175, "GLOBAL_ID": "AE5DB749-8655-4690-857A-18C385D7F75D", "NAME": "Kyle Field", "LATITUDE": "30-36-35.74N", "LONGITUDE": "096-20-25.51W", "CITY": "College Station", "STATE": "TX", "STATUS_CODE": "Open", "OPENING_ON": null }, "geometry": { "type": "Point", "coordinates": [ -96.340426734386, 30.6099331123086 ] } },
{ "type": "Feature", "properties": { "OBJECTID": 176, "GLOBAL_ID": "466E63F3-8C2F-48F5-9016-A6BA604E53A4", "NAME": "TIAA Bank Field", "LATITUDE": "30-19-26.04N", "LONGITUDE": "081-38-14.64W", "CITY": "Jacksonville", "STATE": "FL", "STATUS_CODE": "Open", "OPENING_ON": null }, "geometry": { "type": "Point", "coordinates": [ -81.637403248257399, 30.323905758823599 ] } },
{ "type": "Feature", "properties": { "OBJECTID": 177, "GLOBAL_ID": "2E20BCE7-D68D-46C4-8D5D-A9EF88F4EA60", "NAME": "Dodger Stadium", "LATITUDE": "34-04-25.96N", "LONGITUDE": "118-14-23.82W", "CITY": "Los Angeles", "STATE": "CA", "STATUS_CODE": "Open", "OPENING_ON": null }, "geometry": { "type": "Point", "coordinates": [ -118.239962188343, 34.073882636602399 ] } },
{ "type": "Feature", "properties": { "OBJECTID": 178, "GLOBAL_ID": "304B8C81-4B78-4DED-A403-8427CC47C07A", "NAME": "Milwaukee Mile", "LATITUDE": "43-01-12.64N", "LONGITUDE": "088-00-38.26W", "CITY": "West Allis", "STATE": "WI", "STATUS_CODE": "Open", "OPENING_ON": null }, "geometry": { "type": "Point", "coordinates": [ -88.010633758902202, 43.020185802251298 ] } },
{ "type": "Feature", "properties": { "OBJECTID": 179, "GLOBAL_ID": "05DD4CBF-5A76-4C33-847C-67C120097A32", "NAME": "Yankee Stadium", "LATITUDE": "40-49-46.66N", "LONGITUDE": "073-55-34.46W", "CITY": "Bronx", "STATE": "NY", "STATUS_CODE": "Open", "OPENING_ON": null }, "geometry": { "type": "Point", "coordinates": [ -73.926240319046798, 40.8296360600634 ] } },
{ "type": "Feature", "properties": { "OBJECTID": 180, "GLOBAL_ID": "EBB95E7D-0AD8-43F2-A2D0-A40C51B39810", "NAME": "Mercedes-Benz Stadium", "LATITUDE": "33-45-18.83N", "LONGITUDE": "084-24-03.64W", "CITY": "Atlanta", "STATE": "GA", "STATUS_CODE": "Open", "OPENING_ON": null }, "geometry": { "type": "Point", "coordinates": [ -84.4010153179225, 33.755236991185697 ] } },
{ "type": "Feature", "properties": { "OBJECTID": 181, "GLOBAL_ID": "CE159982-408D-47CB-9703-5F50D1B00ACF", "NAME": "State Farm Stadium", "LATITUDE": "33-31-39.46N", "LONGITUDE": "112-15-45.86W", "CITY": "Glendale", "STATE": "AZ", "STATUS_CODE": "Open", "OPENING_ON": null }, "geometry": { "type": "Point", "coordinates": [ -112.262749950390003, 33.527632895953701 ] } },
{ "type": "Feature", "properties": { "OBJECTID": 182, "GLOBAL_ID": "F3A8285A-F03D-4785-A77D-6DE9FDC61BB0", "NAME": "T-Mobile Park", "LATITUDE": "47-35-29.29N", "LONGITUDE": "122-19-56.46W", "CITY": "Seattle", "STATE": "WA", "STATUS_CODE": "Open", "OPENING_ON": null }, "geometry": { "type": "Point", "coordinates": [ -122.332364890096002, 47.591475059787498 ] } },
{ "type": "Feature", "properties": { "OBJECTID": 183, "GLOBAL_ID": "B2939845-CC36-4162-82F5-8E65651DD807", "NAME": "Beaver Stadium", "LATITUDE": "40-48-43.81N", "LONGITUDE": "077-51-21.88W", "CITY": "University Park", "STATE": "PA", "STATUS_CODE": "Open", "OPENING_ON": null }, "geometry": { "type": "Point", "coordinates": [ -77.856080454712099, 40.812177573861803 ] } },
{ "type": "Feature", "properties": { "OBJECTID": 184, "GLOBAL_ID": "5B012ECF-9565-4332-B7AA-8B7DA636271B", "NAME": "Dowdy-Ficklen Stadium", "LATITUDE": "35-35-47.29N", "LONGITUDE": "077-21-54.93W", "CITY": "Greenville", "STATE": "NC", "STATUS_CODE": "Open", "OPENING_ON": null }, "geometry": { "type": "Point", "coordinates": [ -77.365260545146796, 35.596476527126399 ] } },
{ "type": "Feature", "properties": { "OBJECTID": 185, "GLOBAL_ID": "E7319EB0-4C39-46DA-A0F1-DD56669ACB71", "NAME": "Ryan Field", "LATITUDE": "42-03-55.58N", "LONGITUDE": "087-41-32.96W", "CITY": "Evanston", "STATE": "IL", "STATUS_CODE": "Open", "OPENING_ON": null }, "geometry": { "type": "Point", "coordinates": [ -87.692494676067895, 42.065446771139896 ] } },
{ "type": "Feature", "properties": { "OBJECTID": 186, "GLOBAL_ID": "AF7DE6DD-B226-49DB-87E2-885F1D8053AA", "NAME": "Mississippi Veterans Memorial Stadium", "LATITUDE": "32 19 46.69N", "LONGITUDE": "90 10 47.21 W", "CITY": "Jackson", "STATE": "MS", "STATUS_CODE": "Open", "OPENING_ON": null }, "geometry": { "type": "Point", "coordinates": [ -90.179786311352998, 32.329642026963199 ] } },
{ "type": "Feature", "properties": { "OBJECTID": 187, "GLOBAL_ID": "51398342-58DB-4D99-9EAB-5475449D6E3F", "NAME": "Independence Stadium", "LATITUDE": "32 28 32.08 N", "LONGITUDE": "93 47 31.02 W", "CITY": "Shreveport", "STATE": "LA", "STATUS_CODE": "Open", "OPENING_ON": null }, "geometry": { "type": "Point", "coordinates": [ -93.791956731057297, 32.475583581671899 ] } },
{ "type": "Feature", "properties": { "OBJECTID": 188, "GLOBAL_ID": "806FA17A-4133-4EE7-91F9-21FF0041AC14", "NAME": "Yale Bowl, Class of 1954 Field", "LATITUDE": "41 18 47.72 N", "LONGITUDE": "72 57 37.75 W", "CITY": "New Haven", "STATE": "CT", "STATUS_CODE": "Open", "OPENING_ON": null }, "geometry": { "type": "Point", "coordinates": [ -72.960487259409902, 41.3132639656124 ] } },
{ "type": "Feature", "properties": { "OBJECTID": 189, "GLOBAL_ID": "155D38C9-ACD2-46AE-A918-16DF98958F5E", "NAME": "Camping World Stadium", "LATITUDE": "28 32 20.56 N", "LONGITUDE": "81 24 09.87 W", "CITY": "Orlando", "STATE": "FL", "STATUS_CODE": "Open", "OPENING_ON": null }, "geometry": { "type": "Point", "coordinates": [ -81.402744782285595, 28.539049785974701 ] } },
{ "type": "Feature", "properties": { "OBJECTID": 190, "GLOBAL_ID": "94E64EC0-615D-4C8A-975C-C69CE25630DB", "NAME": "Cotton Bowl Stadium", "LATITUDE": "32 46 46.56 N", "LONGITUDE": "96 45 35.50 W", "CITY": "Dallas", "STATE": "TX", "STATUS_CODE": "Open", "OPENING_ON": null }, "geometry": { "type": "Point", "coordinates": [ -96.760007515035696, 32.779605738748501 ] } },
{ "type": "Feature", "properties": { "OBJECTID": 191, "GLOBAL_ID": "3A12FA3D-2460-4F0F-8174-0EFBBD85F5FF", "NAME": "Harvard Stadium", "LATITUDE": "42 22 00.19 N", "LONGITUDE": "71 07 36.32 W", "CITY": "Boston", "STATE": "MA", "STATUS_CODE": "Open", "OPENING_ON": null }, "geometry": { "type": "Point", "coordinates": [ -71.126756169404999, 42.366728116477297 ] } },
{ "type": "Feature", "properties": { "OBJECTID": 192, "GLOBAL_ID": "2119C5C8-B355-4264-B851-653BAB6C0D1E", "NAME": "Firestone Grand Prix of St. Petersburg", "LATITUDE": "27-45-54.50N", "LONGITUDE": "82-37-46.06W", "CITY": "Tampa", "STATE": "FL", "STATUS_CODE": "Open", "OPENING_ON": null }, "geometry": { "type": "Point", "coordinates": [ -82.629464556235305, 27.7651440125371 ] } },
{ "type": "Feature", "properties": { "OBJECTID": 193, "GLOBAL_ID": "8DA1E68F-417C-4CF3-B906-0ED9B666766A", "NAME": "Circuit Of The Americas", "LATITUDE": "30-07-54.66N", "LONGITUDE": "97-38-23.17W", "CITY": "Austin", "STATE": "TX", "STATUS_CODE": "Open", "OPENING_ON": null }, "geometry": { "type": "Point", "coordinates": [ -97.639777037869706, 30.131855192632599 ] } },
{ "type": "Feature", "properties": { "OBJECTID": 194, "GLOBAL_ID": "B5562084-D3DE-417F-831C-E55D2496AED1", "NAME": "Barber Motorsports Park", "LATITUDE": "33-31-57.43N", "LONGITUDE": "86-37-10.74W", "CITY": "Birmingham", "STATE": "AL", "STATUS_CODE": "Open", "OPENING_ON": null }, "geometry": { "type": "Point", "coordinates": [ -86.619654829648795, 33.532625748190597 ] } },
{ "type": "Feature", "properties": { "OBJECTID": 195, "GLOBAL_ID": "AADE71F1-1C78-4350-B367-359D8917651A", "NAME": "Acura Grand Prix of Long Beach", "LATITUDE": "33-45-43.96N", "LONGITUDE": "118-11-14.06W", "CITY": "Long Beach", "STATE": "CA", "STATUS_CODE": "Open", "OPENING_ON": null }, "geometry": { "type": "Point", "coordinates": [ -118.187251043369002, 33.762215937961997 ] } },
{ "type": "Feature", "properties": { "OBJECTID": 196, "GLOBAL_ID": "45420CBB-D4BD-4D57-97E1-A0DA6A609115", "NAME": "The Raceway At Belle Ilse Park", "LATITUDE": "42-20-13.56N", "LONGITUDE": "82-59-55.36W", "CITY": "Detroit", "STATE": "MI", "STATUS_CODE": "Open", "OPENING_ON": null }, "geometry": { "type": "Point", "coordinates": [ -82.998715509758696, 42.337108178406901 ] } },
{ "type": "Feature", "properties": { "OBJECTID": 197, "GLOBAL_ID": "71525F00-6DCC-4520-8AC6-19F48A7AAA5B", "NAME": "Briggs & Stratton Motorplex ", "LATITUDE": "43-47-52.37N", "LONGITUDE": "87-59-22.67W", "CITY": "Elkhart Lake", "STATE": "WI", "STATUS_CODE": "Open", "OPENING_ON": null }, "geometry": { "type": "Point", "coordinates": [ -87.989636616919498, 43.797888708659897 ] } },
{ "type": "Feature", "properties": { "OBJECTID": 198, "GLOBAL_ID": "08676878-D744-4738-BF98-BBD9D535551C", "NAME": "Mid-Ohio Sports Car Course", "LATITUDE": "40 41 22.27N", "LONGITUDE": "82-38-06.97W", "CITY": "Lexington", "STATE": "OH", "STATUS_CODE": "Open", "OPENING_ON": null }, "geometry": { "type": "Point", "coordinates": [ -82.635273590190906, 40.689527341269802 ] } },
{ "type": "Feature", "properties": { "OBJECTID": 199, "GLOBAL_ID": "802506F8-D42C-4445-A824-140B2FFF0739", "NAME": "World Wide Technology Raceway", "LATITUDE": "38-39-01.58N", "LONGITUDE": "90-08-13.06W", "CITY": "Madison", "STATE": "IL", "STATUS_CODE": "Open", "OPENING_ON": null }, "geometry": { "type": "Point", "coordinates": [ -90.136967284595499, 38.650446037862999 ] } },
{ "type": "Feature", "properties": { "OBJECTID": 200, "GLOBAL_ID": "B019940F-BB93-4FE9-AF9D-D5B623FF0EC4", "NAME": "Portland International Raceway", "LATITUDE": "45-35-42.04N", "LONGITUDE": "122-41-44.42W", "CITY": "Portland", "STATE": "OR", "STATUS_CODE": "Open", "OPENING_ON": null }, "geometry": { "type": "Point", "coordinates": [ -122.695686722534006, 45.5950165782589 ] } },
{ "type": "Feature", "properties": { "OBJECTID": 201, "GLOBAL_ID": "0C46B198-DA8D-4CAA-B9BA-34BB712F25A8", "NAME": "Weather Tech Raceway Laguna Seca", "LATITUDE": "36-35-13.20N", "LONGITUDE": "121-45-23.90W", "CITY": "Monterey", "STATE": "CA", "STATUS_CODE": "Open", "OPENING_ON": null }, "geometry": { "type": "Point", "coordinates": [ -121.756651873430002, 36.587004889448401 ] } },
{ "type": "Feature", "properties": { "OBJECTID": 202, "GLOBAL_ID": "5774387C-648B-4D44-937F-DF33EDD896DA", "NAME": "Globe Life Field", "LATITUDE": "32 44 48.12 N", "LONGITUDE": "97 05 16.08 W", "CITY": "Arilington", "STATE": "TX", "STATUS_CODE": "Open", "OPENING_ON": null }, "geometry": { "type": "Point", "coordinates": [ -97.087807595986106, 32.746705718432501 ] } },
{ "type": "Feature", "properties": { "OBJECTID": 203, "GLOBAL_ID": "75F32156-C948-4322-92D9-5B860A255AD3", "NAME": "SoFi Stadium", "LATITUDE": "33 57 12.02 N", "LONGITUDE": "118 20 20.90 W", "CITY": "Inglewood", "STATE": "CA", "STATUS_CODE": "Open", "OPENING_ON": null }, "geometry": { "type": "Point", "coordinates": [ -118.339151084150998, 33.953343728697398 ] } },
{ "type": "Feature", "properties": { "OBJECTID": 204, "GLOBAL_ID": "03D0436A-0299-4481-81BE-1D9AA5B60CD1", "NAME": "Allegiant Stadium", "LATITUDE": "36 05 27.06 N", "LONGITUDE": "115 10 59.20 W", "CITY": "Las Vegas", "STATE": "NV", "STATUS_CODE": "Open", "OPENING_ON": null }, "geometry": { "type": "Point", "coordinates": [ -115.183122942685003, 36.0908552708838 ] } },
{ "type": "Feature", "properties": { "OBJECTID": 205, "GLOBAL_ID": "8E63E366-3AF4-4055-88AA-A9DB8E5D16C8", "NAME": "Protective Stadium", "LATITUDE": "33-31-39.97N", "LONGITUDE": "086-48-33.44W", "CITY": "Birmingham", "STATE": "AL", "STATUS_CODE": "Open", "OPENING_ON": null }, "geometry": { "type": "Point", "coordinates": [ -86.809293772067605, 33.527775739887304 ] } },
{ "type": "Feature", "properties": { "OBJECTID": 206, "GLOBAL_ID": "C0D35562-18DD-4D34-BD56-417F11A8F98A", "NAME": "Snapdragon Stadium", "LATITUDE": "32 47 02.86 N ", "LONGITUDE": "117 07 20.75 W", "CITY": "San Diego", "STATE": "CA", "STATUS_CODE": "Open", "OPENING_ON": null }, "geometry": { "type": "Point", "coordinates": [ -117.122442455270004, 32.7841325489646 ] } },
{ "type": "Feature", "properties": { "OBJECTID": 207, "GLOBAL_ID": "00039BFA-850E-4419-B2F4-E4C087346C05", "NAME": "Heineken Silver Las Vegas Grand Prix", "LATITUDE": "36-06-39.01N", "LONGITUDE": "115-09-36.36W", "CITY": "Las Vegas", "STATE": "NV", "STATUS_CODE": "Open", "OPENING_ON": null }, "geometry": { "type": "Point", "coordinates": [ -115.160111829396001, 36.110841385661601 ] } }
]
}

